CODIGO;NOMBRE;CATEGORIA;TECNOLOGIA;ALTITUD;LATITUD;LONGITUD;DEPARTAMENTO;MUNICIPIO;AREA_HIDROGRAFICA;ZONA_HIDROGRAFICA;SUBZONA_HIDROGRAFICA
11010010;LA VUELTA [11010010];Pluviométrica;Convencional;98;5.4589444440;-76.5447222220;Choco;Cértegui;Caribe;Atrato - Darién;Río Andágueda
11017010;AGUASAL [11017010];Limnimétrica;Convencional;75;5.4739438890;-76.5378611110;Choco;Lloró;Caribe;Atrato - Darién;Río Andágueda
11017020;BAGADO [11017020];Limnigráfica;Automática con Telemetría;90;5.4120;-76.4178888890;Choco;Bagadó;Caribe;Atrato - Darién;Río Andágueda
11020010;CARMEN DE ATRATO [11020010];Pluviométrica;Convencional;1850;5.9085277780;-76.14208333;Choco;El Carmen;Caribe;Atrato - Darién;Alto Atrato
11020020;GUADUAS [11020020];Pluviométrica;Convencional;1500;5.7666666670;-76.18333333;Choco;El Carmen;Caribe;Atrato - Darién;Alto Atrato
11020050;EL PINON [11020050];Pluviométrica;Convencional;715;5.7576666670;-76.25086111;Choco;El Carmen;Caribe;Atrato - Darién;Alto Atrato
11025010;LA MANSA [11025010];Climática Ordinaria;Convencional;2018;5.8783055560;-76.08433333;Antioquia;Ciudad Bolívar;Caribe;Atrato - Darién;Alto Atrato
11027010;PUENTE LAS SANCHEZ [11027010];Limnimétrica;Convencional;2000;5.8519722220;-76.18080556;Choco;El Carmen;Caribe;Atrato - Darién;Alto Atrato
11027020;OCHO EL [11027020];Limnimétrica;Convencional;900;5.85;-76.25;Choco;El Carmen;Caribe;Atrato - Darién;Alto Atrato
11027030;EL SIETE [11027030];Limnigráfica;Automática con Telemetría;2300;5.8620;-76.15205556;Choco;El Carmen;Caribe;Atrato - Darién;Alto Atrato
11027040;ARRAYANES LOS [11027040];Limnigráfica;Convencional;1500;5.80;-76.30;Choco;El Carmen;Caribe;Atrato - Darién;Alto Atrato
11027050;GINDRAMA [11027050];Limnigráfica;Automática con Telemetría;75;5.5215555560;-76.51772222;Choco;Lloró;Caribe;Atrato - Darién;Alto Atrato
11027060;PINON EL [11027060];Limnimétrica;Convencional;1350;5.7333333330;-76.36666667;Choco;El Carmen;Caribe;Atrato - Darién;Alto Atrato
11027070;BORAUDO [11027070];Limnigráfica;Automática con Telemetría - Convencional;78;5.5146111110;-76.57569444;Choco;Lloró;Caribe;Atrato - Darién;Río Cabi y otros Directos Atrato (md)
11030010;CERTEGUI [11030010];Pluviométrica;Automática con Telemetría - Convencional;72;5.38;-76.61;Choco;Cértegui;Caribe;Atrato - Darién;Río Quito
11030030;MANAGRU [11030030];Pluviométrica;Convencional;64;5.3341666670;-76.72813889;Choco;El Cantón Del San Pablo (Managrú);Caribe;Atrato - Darién;Río Quito
11030040;PAIMADO [11030040];Pluviométrica;Convencional;35;5.4816111110;-76.74086111;Choco;Rio Quito (Paimadó);Caribe;Atrato - Darién;Río Quito
11030070;LOMA LA PUEBLO NUEVO [11030070];Pluviográfica;Convencional;72;5.5846666670;-76.7532777780;Choco;Rio Quito (Paimadó);Caribe;Atrato - Darién;Río Quito
11035010;LLORO [11035010];Climática Principal;Automática con Telemetría - Convencional;41;5.51;-76.58;Choco;Lloró;Caribe;Atrato - Darién;Río Quito
11035020;SAN ISIDRO [11035020];Pluviométrica;Convencional;53;5.6261666670;-76.74972222;Choco;Rio Quito (Paimadó);Caribe;Atrato - Darién;Río Quito
11035030;UNION PANAMERICANA - AUT  [11035030];Climática Ordinaria;Automática con Telemetría;110;5.2848277780;-76.6278222220;Choco;Unión Panamericana ( Animas);Caribe;Atrato - Darién;Río Quito
11037010;SAN ISIDRO [11037010] ;Limnimétrica;Convencional;53;5.626250;-76.7497219440;Choco;Rio Quito (Paimadó);Caribe;Atrato - Darién;Río Quito
11037020;PUENTE CERTEGUI [11037020];Limnigráfica;Convencional;77;5.374750;-76.613250;Choco;Cértegui;Caribe;Atrato - Darién;Río Quito
11037030;LA LOMA PUEBLO [11037030];Limnigráfica;Automática con Telemetría;72;5.5846666670;-76.75327778;Choco;Rio Quito (Paimadó);Caribe;Atrato - Darién;Río Quito
11040010;TUTUNENDO [11040010];Pluviométrica;Convencional;54;5.7436111110;-76.53780556;Choco;Quibdó;Caribe;Atrato - Darién;Río Bebaramá y otros Directos Atrato (md)
11045010;AEROPUERTO EL CARAÑO [11045010];Sinóptica Principal;Automática con Telemetría;75;5.6905555560;-76.64377778;Choco;Quibdó;Caribe;Atrato - Darién;Río Cabi y otros Directos Atrato (md)
11045030;HUAPANGO [11045030];Climática Ordinaria;Convencional;50;5.70;-76.63333333;Choco;Quibdó;Caribe;Atrato - Darién;Río Cabi y otros Directos Atrato (md)
11047010;BELEN [11047010];Limnigráfica;Automática con Telemetría - Convencional;26;5.7648333330;-76.66966667;Choco;Quibdó;Caribe;Atrato - Darién;Río Cabi y otros Directos Atrato (md)
11047020;QUIBDO [11047020];Limnigráfica;Automática con Telemetría;21;5.6977780560;-76.6622222220;Choco;Quibdó;Caribe;Atrato - Darién;Río Cabi y otros Directos Atrato (md)
11047030;NEGUA [11047030];Limnimétrica;Convencional;35;5.8281688890;-76.6180166670;Choco;Quibdó;Caribe;Atrato - Darién;Río Bebaramá y otros Directos Atrato (md)
11047040;QUIBDO [11047040];Limnigráfica;Automática con Telemetría;21;5.6977780560;-76.66222222;Choco;Quibdó;Caribe;Atrato - Darién;Río Cabi y otros Directos Atrato (md)
11050010;TAGACHI [11050010];Pluviométrica;Convencional;20;6.2217777780;-76.72702778;Choco;Quibdó;Caribe;Atrato - Darién;Directos Atrato entre ríos Bebaramá y Murrí (md)
11050020;BETE [11050020];Pluviométrica;Convencional;25;5.9947222220;-76.78002778;Choco;Medio Atrato (Beté);Caribe;Atrato - Darién;Directos Atrato entre ríos Quito y Bojayá (mi)
11050030;EL BUEY [11050030];Pluviométrica;Convencional;25;6.1025;-76.82136111;Choco;Medio Atrato (Beté);Caribe;Atrato - Darién;Directos Atrato entre ríos Quito y Bojayá (mi)
11050040;CALAORRA [11050040];Pluviométrica;Convencional;50;5.7666666670;-76.85;Choco;Quibdó;Caribe;Atrato - Darién;Directos Atrato entre ríos Quito y Bojayá (mi)
11050060;ALTO DEL BUEY [11050060];Pluviométrica;Convencional;100;6.1083333330;-76.91563889;Choco;Medio Atrato (Beté);Caribe;Atrato - Darién;Directos Atrato entre ríos Quito y Bojayá (mi)
11057010;TAGACHI [11057010];Limnimétrica;Convencional;18;6.2166666670;-76.71666667;Choco;Quibdó;Caribe;Atrato - Darién;Directos Atrato entre ríos Bebaramá y Murrí (md)
11057020;SAN ANTONIO PADUA [11057020];Limnigráfica;Automática con Telemetría;18;6.2866666670;-76.76180556;Antioquia;Vigia Del Fuerte;Caribe;Atrato - Darién;Directos Atrato entre ríos Bebaramá y Murrí (md)
11060010;BUCHADO [11060010];Pluviométrica;Convencional;18;6.42;-76.77927778;Antioquia;Vigia Del Fuerte;Caribe;Atrato - Darién;Directos Atrato entre ríos Bebaramá y Murrí (md)
11070010;PLAYA LA-MURRY [11070010] ;Pluviométrica;Convencional;22;6.6166669440;-76.75;Antioquia;Vigia Del Fuerte;Caribe;Atrato - Darién;Río Murrí
11070020;EL ROBLE [11070020];Pluviométrica;Convencional;1496;6.3320516670;-76.229145;Antioquia;Urrao;Caribe;Atrato - Darién;Río Murrí
11070030;LA CLARITA [11070030];Pluviométrica;Convencional;2300;6.5394444440;-76.15861111;Antioquia;Urrao;Caribe;Atrato - Darién;Río Murrí
11070040;URRAO [11070040];Pluviométrica;Convencional;1875;6.3333333330;-76.16666667;Antioquia;Urrao;Caribe;Atrato - Darién;Río Murrí
11070130;BRECHON EL [11070130];Pluviométrica;Convencional;2320;6.1333333330;-76.03333333;Antioquia;Urrao;Caribe;Atrato - Darién;Río Murrí
11075010;HONDA LA [11075010];Climática Ordinaria;Convencional;1850;6.3563888890;-76.15805556;Antioquia;Urrao;Caribe;Atrato - Darién;Río Murrí
11075020;URRAO [11075020];Climática Ordinaria;Convencional;1833;6.2983055560;-76.1433055560;Antioquia;Urrao;Caribe;Atrato - Darién;Río Murrí
11077010;BELLAVISTA  [11077010];Limnimétrica;Convencional;12;6.5588055560;-76.88447222;Choco;Bojayá (Bellavista);Caribe;Atrato - Darién;Directos Atrato entre ríos Quito y Bojayá (mi)
11077020;LA MAGDALENA [11077020];Limnigráfica;Automática con Telemetría;1770;6.2983611110;-76.13447222;Antioquia;Urrao;Caribe;Atrato - Darién;Río Murrí
11077030;PLAYA LA [11077030];Limnimétrica;Convencional;22;6.6166666670;-76.75;Antioquia;Vigia Del Fuerte;Caribe;Atrato - Darién;Río Murrí
11080010;BELLAVISTA [11080010];Climática Ordinaria;Automática con Telemetría;18;6.5591666670;-76.88541667;Choco;Bojayá (Bellavista);Caribe;Atrato - Darién;Directos Atrato entre ríos Quito y Bojayá (mi)
11080030;LOMA LA-BOJAYA [11080030];Pluviométrica;Convencional;20;6.5333330560;-76.9833327780;Choco;Bojayá (Bellavista);Caribe;Atrato - Darién;Río Bojayá
11085010;LOMA LA [11085010];Agrometeorológica;Convencional;20;6.5333333330;-76.98333333;Choco;Bojayá (Bellavista);Caribe;Atrato - Darién;Río Bojayá
11090010;OPOGADO [11090010];Pluviométrica;Convencional;50;6.8125277780;-76.97272222;Choco;Bojayá (Bellavista);Caribe;Atrato - Darién;Río Napipí - Río Opogadó
11100010;VIGIA DE CURVARADO [11100010];Pluviométrica;Convencional;25;7.0833333330;-76.91666667;Choco;Carmen Del Darién  (Curbaradó);Caribe;Atrato - Darién;Río Murindó - Directos al Atrato
11100020;DOMINGODO [11100020];Pluviométrica;Convencional;4;7.18;-77.03;Choco;Carmen Del Darién  (Curbaradó);Caribe;Atrato - Darién;Río Sucio
11100030;MURINDO [11100030];Pluviométrica;Convencional;23;7;-76.75;Antioquia;Murindó;Caribe;Atrato - Darién;Río Murindó - Directos al Atrato
11105010;MURINDO [11105010];Climática Ordinaria;Convencional;23;6.9666666670;-76.75;Antioquia;Murindó;Caribe;Atrato - Darién;Río Murindó - Directos al Atrato
11105020;CARMEN DEL DARIEN [11105020];Climática Ordinaria;Automática con Telemetría;18;7.1543333330;-76.97719444;Choco;Carmen Del Darién  (Curbaradó);Caribe;Atrato - Darién;Río Sucio
11107010;DOMINGODO [11107010];Limnimétrica;Convencional;4;7.18;-77.03;Choco;Carmen Del Darién  (Curbaradó);Caribe;Atrato - Darién;Río Sucio
11110010;NORMAL SANTA TERESA AUT [11110010];Climática Ordinaria;Automática con Telemetría - Convencional;1429;6.7633333330;-76.13361111;Antioquia;Frontino;Caribe;Atrato - Darién;Río Sucio
11110020;ABRIAQUI [11110020];Pluviométrica;Convencional;1920;6.6425;-76.0750;Antioquia;Abriaquí;Caribe;Atrato - Darién;Río Sucio
11110030;FUEMIA [11110030];Pluviométrica;Convencional;1046;6.857890;-76.2523194440;Antioquia;Dabeiba;Caribe;Atrato - Darién;Río Sucio
11110040;CANASGORDAS [11110040];Pluviométrica;Convencional;1200;6.75;-76.03333333;Antioquia;Cañasgordas;Caribe;Atrato - Darién;Río Sucio
11110060;DABEIBA [11110060];Pluviométrica;Convencional;540;7;-76.26666667;Antioquia;Dabeiba;Caribe;Atrato - Darién;Río Sucio
11110110;BOQUERON DE TOYO [11110110];Climática Ordinaria;Automática con Telemetría - Convencional;20;6.6994444440;-75.9775;Antioquia;Giraldo;Caribe;Atrato - Darién;Río Sucio
11115010;DABEIBA [11115010];Climática Principal;Convencional;540;7;-76.2666669440;Antioquia;Dabeiba;Caribe;Atrato - Darién;Río Sucio
11115020;CAÑASGORDAS [11115020];Climática Ordinaria;Automática con Telemetría;1294;6.7580277780;-76.02966667;Antioquia;Cañasgordas;Caribe;Atrato - Darién;Río Sucio
11115030;NUTIBARA [11115030];Climática Ordinaria;Convencional;1400;6.8166666670;-76.25;Antioquia;Frontino;Caribe;Atrato - Darién;Río Sucio
11115040;MUSINGA AUT [11115040];Climática Ordinaria;Automática con Telemetría - Convencional;1396;6.7779722220;-76.20333333;Antioquia;Frontino;Caribe;Atrato - Darién;Río Sucio
11117010;EL AÑIL [11117010];Limnimétrica;Automática con Telemetría - Convencional;650;6.8738888890;-76.14958333;Antioquia;Uramita;Caribe;Atrato - Darién;Río Sucio
11117020;DABEIBA 1 [11117020];Limnimétrica;Convencional;490;7.0166666670;-76.26666667;Antioquia;Dabeiba;Caribe;Atrato - Darién;Río Sucio
11117030;TASCON [11117030];Limnigráfica;Convencional;300;7.0833333330;-76.41666667;Antioquia;Dabeiba;Caribe;Atrato - Darién;Río Sucio
11117040;MUTATA [11117040];Limnigráfica;Automática con Telemetría;132;7.2294444440;-76.43805556;Antioquia;Mutatá;Caribe;Atrato - Darién;Río Sucio
11117050;DABEIBA 2 [11117050];Limnigráfica;Automática con Telemetría;650;7.0102780560;-76.2883333330;Antioquia;Dabeiba;Caribe;Atrato - Darién;Río Sucio
11120010;SALAQUI [11120010];Pluviométrica;Convencional;20;7.4333333330;-77.28333333;Choco;Riosucio;Caribe;Atrato - Darién;Río Salaquí  y otros directos Bajo Atrato
11120040;RIOSUCIO [11120040];Climática Ordinaria;Automática con Telemetría;2;7.4394444440;-77.11527778;Choco;Riosucio;Caribe;Atrato - Darién;Río Sucio
11125010;TERESITA LA [11125010];Climática Ordinaria;Convencional;50;7;-77.50;Choco;Riosucio;Caribe;Atrato - Darién;Río Salaquí  y otros directos Bajo Atrato
11127010;NUEVA LA [11127010];Limnimétrica;Convencional;75;7.3166666670;-77.16666667;Choco;Riosucio;Caribe;Atrato - Darién;Río Salaquí  y otros directos Bajo Atrato
11130010;UNGUIA [11130010];Pluviométrica;Convencional;14;8.0367780560;-77.0878608330;Choco;Unguía;Caribe;Atrato - Darién;Río Tanela y otros Directos al Caribe
11130020;HONDA LA [11130020];Pluviométrica;Convencional;5;7.5766666670;-77.12555556;Choco;Riosucio;Caribe;Atrato - Darién;Río Salaquí  y otros directos Bajo Atrato
11130030;SAUTATA [11130030];Pluviométrica;Convencional;5;7.8666666670;-77.16666667;Choco;Riosucio;Caribe;Atrato - Darién;Río Tanela y otros Directos al Caribe
11135010;SAUTATA [11135010];Climática Ordinaria;Convencional;2;7.85;-77.11666667;Choco;Riosucio;Caribe;Atrato - Darién;Río Tanela y otros Directos al Caribe
11135020;BALSA LA [11135020];Climática Ordinaria;Convencional;5;7.5166666670;-77.20;Choco;Riosucio;Caribe;Atrato - Darién;Río Salaquí  y otros directos Bajo Atrato
11135030;UNGUIA [11135030];Climática Principal;Automática con Telemetría;14;8.0367222220;-77.08786111;Choco;Unguía;Caribe;Atrato - Darién;Río Tanela y otros Directos al Caribe
11140010;MARIRRIO [11140010];Pluviométrica;Convencional;1;8;-76.95;Antioquia;Turbo;Caribe;Atrato - Darién;Directos Bajo Atrato entre río Sucio y desembocadura
11145010;BAJIRA [11145010];Climática Ordinaria;Convencional;150;7.3833333330;-76.66666667;Choco;Riosucio;Caribe;Atrato - Darién;Río Sucio
11147010;RIOSUCIO [11147010];Limnimétrica;Convencional;2;7.44;-77.12;Choco;Riosucio;Caribe;Atrato - Darién;Río Salaquí  y otros directos Bajo Atrato
11147020;BAJIRA [11147020];Limnigráfica;Convencional;2;7.3684444440;-76.72727778;Choco;Riosucio;Caribe;Atrato - Darién;Río Sucio
11147030;PRIMAVERA [11147030];Limnimétrica;Convencional;160;7.35;-76.63333333;Antioquia;Mutatá;Caribe;Atrato - Darién;Río Sucio
11150010;TITUMATE [11150010];Pluviométrica;Convencional;11;8.3080555560;-77.07583333;Choco;Unguía;Caribe;Atrato - Darién;Río Tolo y otros Directos al Caribe
11150020;TANELA [11150020];Pluviométrica;Convencional;10;8.1629166670;-77.0404166670;Choco;Unguía;Caribe;Atrato - Darién;Río Tanela y otros Directos al Caribe
11150030;ACANDI [11150030];Pluviométrica;Convencional;160;8.5308333330;-77.27694444;Choco;Acandí;Caribe;Atrato - Darién;Río Tolo y otros Directos al Caribe
11155010;PLAYA LA [11155010];Climática Ordinaria;Convencional;2;8.5333333330;-77.28333333;Choco;Acandí;Caribe;Atrato - Darién;Río Tolo y otros Directos al Caribe
11155020;GLORIA LA [11155020];Climática Ordinaria;Convencional;5;8.2666666670;-77.06666667;Choco;Unguía;Caribe;Atrato - Darién;Río Tanela y otros Directos al Caribe
11155030;CAPURGANA [11155030];Meteorologica Marina;Automática con Telemetría;19;8.616250;-77.32819444;Choco;Acandí;Caribe;Atrato - Darién;Río Tolo y otros Directos al Caribe
11159010;CAPURGANA - AUT [11159010];Meteorologica Marina;Automática con Telemetría;1;8.62;-77.33;Choco;Acandí;Caribe;Atrato - Darién;Río Tolo y otros Directos al Caribe
11175000;ATRATO - AUT  [11175000];Climática Ordinaria;Automática con Telemetría;63;5.588350;-76.643510;Choco;Atrato (Yuto);Caribe;Atrato - Darién;Río Cabi y otros Directos Atrato (md)
12010010;EL TORMENTO [12010010];Pluviométrica;Convencional;20;7.7663888890;-76.85527778;Antioquia;Turbo;Caribe;Caribe - Litoral;Río León
12010020;PALMERA LA [12010020];Pluviométrica;Convencional;58;7.50;-76.5999997220;Antioquia;Chigorodó;Caribe;Caribe - Litoral;Río León
12010030;BARRANQUILLITA [12010030];Pluviométrica;Convencional;18;7.57;-76.70;Antioquia;Chigorodó;Caribe;Caribe - Litoral;Río León
12010040;TULENAPA [12010040];Pluviométrica;Convencional;30;7.6666666670;-76.66666667;Antioquia;Chigorodó;Caribe;Caribe - Litoral;Río León
12010050;LA TOSCANA [12010050];Pluviométrica;Convencional;15;7.8080555560;-76.70305556;Antioquia;Carepa;Caribe;Caribe - Litoral;Río León
12010060;LA LORENA [12010060];Pluviométrica;Convencional;10;7.8630555560;-76.68916667;Antioquia;Apartadó;Caribe;Caribe - Litoral;Río León
12010070;EL CASCO [12010070];Pluviométrica;Convencional;18;7.8844444440;-76.64777778;Antioquia;Apartadó;Caribe;Caribe - Litoral;Río León
12010080;SANTA ISABEL [12010080];Pluviométrica;Convencional;30;7.75;-76.66666667;Antioquia;Carepa;Caribe;Caribe - Litoral;Río León
12010090;TRIGANA [12010090];Pluviométrica;Convencional;21;7.7476666670;-76.7118888890;Antioquia;Carepa;Caribe;Caribe - Litoral;Río León
12010100;EUPOL [12010100];Pluviométrica;Convencional;10;7.9455277780;-76.61738889;Antioquia;Turbo;Caribe;Caribe - Litoral;Río León
12010110;PRADO MAR [12010110];Pluviométrica;Convencional;5;7.9874166670;-76.63852778;Antioquia;Turbo;Caribe;Caribe - Litoral;Río Mulatos y otros directos al Caribe
12010120;SANTA MARTHA [12010120];Pluviométrica;Convencional;21;7.9238333330;-76.64908333;Antioquia;Turbo;Caribe;Caribe - Litoral;Río León
12010130;CHIGORODO [12010130];Pluviométrica;Convencional;30;7.70;-76.70;Antioquia;Chigorodó;Caribe;Caribe - Litoral;Río León
12010140;RIOGRANDE [12010140];Pluviométrica;Convencional;5;7.9333333330;-76.63333333;Antioquia;Turbo;Caribe;Caribe - Litoral;Río León
12010150;VILLA ARTEAGA [12010150];Pluviométrica;Convencional;150;7.45;-76.61666667;Antioquia;Mutatá;Caribe;Caribe - Litoral;Río León
12010160;SAN JOSE APARTADO [12010160];Pluviográfica;Convencional;100;7.8666666670;-76.60;Antioquia;Apartadó;Caribe;Caribe - Litoral;Río León
12010170;NUEVO ORIENTE [12010170];Pluviográfica;Convencional;23;7.4603333330;-76.68955556;Antioquia;Turbo;Caribe;Atrato - Darién;Directos Bajo Atrato entre río Sucio y desembocadura
12010180;CHOROMANDO HACIENDA [12010180];Pluviográfica;Convencional;150;7.95;-76.58333333;Antioquia;Turbo;Caribe;Caribe - Litoral;Río León
12015010;VILLARTEAGA [12015010];Climática Ordinaria;Convencional;132;7.3346666670;-76.48602778;Antioquia;Mutatá;Caribe;Caribe - Litoral;Río León
12015020;UNIBAN [12015020];Agrometeorológica;Convencional;43;7.8259166670;-76.65133333;Antioquia;Apartadó;Caribe;Caribe - Litoral;Río León
12015030;IDEMA-MONTECRISANTO [12015030];Climática Ordinaria;Convencional;40;7.65;-76.68333333;Antioquia;Chigorodó;Caribe;Caribe - Litoral;Río León
12015040;NEGRA LA 1 [12015040];Meteorológica Especial;Convencional;2;7.95;-76.68333333;Antioquia;Turbo;Caribe;Caribe - Litoral;Río León
12015050;RIOGRANDE [12015050];Climática Ordinaria;Convencional;20;7.9166666670;-76.63333333;Antioquia;Turbo;Caribe;Caribe - Litoral;Río León
12015060;TULENAPA [12015060];Climática Ordinaria;Automática con Telemetría;39;7.77;-76.67;Antioquia;Carepa;Caribe;Caribe - Litoral;Río León
12015070;AEROPUERTO LOS CEDROS [12015070];Sinóptica Principal;Convencional;41;7.8163888890;-76.71788889;Antioquia;Carepa;Caribe;Caribe - Litoral;Río León
12015080;CERRAZON LA [12015080];Agrometeorológica;Convencional;70;7.7166666670;-76.61666667;Antioquia;Chigorodó;Caribe;Caribe - Litoral;Río León
12015090;PALMERA LA [12015090];Climática Ordinaria;Convencional;58;7.5383333330;-76.60555556;Antioquia;Chigorodó;Caribe;Caribe - Litoral;Río León
12015100;PISTA INDIRA [12015100];Agrometeorológica;Automática con Telemetría;15;7.940750;-76.69616667;Antioquia;Turbo;Caribe;Caribe - Litoral;Río León
12015110;CHIGORODO [12015110];Agrometeorológica;Automática con Telemetría;44;7.6711388890;-76.69405556;Antioquia;Chigorodó;Caribe;Caribe - Litoral;Río León
12017010;CHIGORODO [12017010];Limnimétrica;Automática con Telemetría;20;7.6730555560;-76.68391667;Antioquia;Chigorodó;Caribe;Caribe - Litoral;Río León
12017020;BARRANQUILLITA [12017020];Limnigráfica;Automática con Telemetría;22;7.57;-76.71;Antioquia;Chigorodó;Caribe;Caribe - Litoral;Río León
12017030;VICTORIA LA [12017030];Limnimétrica;Convencional;20;7.8166666670;-76.68333333;Antioquia;Apartadó;Caribe;Caribe - Litoral;Río León
12017040;RIOGRANDE [12017040];Limnimétrica;Convencional;22;7.9278333330;-76.62111111;Antioquia;Turbo;Caribe;Caribe - Litoral;Río León
12017050;PUENTE CARRETERA [12017050];Limnimétrica;Convencional;23;7.8238888890;-76.64805556;Antioquia;Apartadó;Caribe;Caribe - Litoral;Río León
12017060;APARTADO [12017060];Limnimétrica;Convencional;65;7.875750;-76.62258333;Antioquia;Apartadó;Caribe;Caribe - Litoral;Río León
12017070;CERRAZON LA [12017070];Limnigráfica;Automática sin Telemetría;40;7.7208611110;-76.57636111;Antioquia;Chigorodó;Caribe;Caribe - Litoral;Río León
12017080;CAREPA [12017080];Limnimétrica;Convencional;62;7.7633611110;-76.658250;Antioquia;Carepa;Caribe;Caribe - Litoral;Río León
12017100;VILLARTEAGA [12017100];Limnimétrica;Convencional;80;7.4130780560;-76.5990527780;Antioquia;Mutatá;Caribe;Caribe - Litoral;Río León
12020010;PUEBLO BELLO [12020010];Pluviométrica;Convencional;136;8.1999972220;-76.52;Antioquia;Turbo;Caribe;Caribe - Litoral;Río Mulatos y otros directos al Caribe
12020040;NUEVA ANTIOQUIA [12020040];Pluviométrica;Convencional;13;8.05;-76.55;Antioquia;Turbo;Caribe;Caribe - Litoral;Río Mulatos y otros directos al Caribe
12020170;PLAYONA LA [12020170];Pluviográfica;Convencional;150;8.1833333330;-76.65;Antioquia;Turbo;Caribe;Caribe - Litoral;Río Mulatos y otros directos al Caribe
12025010;AEROPUERTO GONZALO [12025010];Climática Ordinaria;Convencional;1;8.1166666670;-76.73333333;Antioquia;Turbo;Caribe;Caribe - Litoral;Río Mulatos y otros directos al Caribe
12025020;CARIBIA [12025020];Climática Ordinaria;Convencional;20;8.50;-76.68333333;Antioquia;Necoclí;Caribe;Caribe - Litoral;Río Mulatos y otros directos al Caribe
12025030;EL MELLITO [12025030];Climática Ordinaria;Convencional;54;8.5426666670;-76.67336111;Antioquia;Necoclí;Caribe;Caribe - Litoral;Río Mulatos y otros directos al Caribe
12025040;TURBO [12025040];Climática Ordinaria;Automática con Telemetría;37;8.0918055560;-76.71633333;Antioquia;Turbo;Caribe;Caribe - Litoral;Río Mulatos y otros directos al Caribe
12027010;PUEBLO BELLO [12027010];Limnigráfica;Automática con Telemetría;10;8.2037811110;-76.5249444440;Antioquia;Turbo;Caribe;Caribe - Litoral;Río Mulatos y otros directos al Caribe
12027030;TRES EL [12027030];Limnimétrica;Convencional;20;8.0650277780;-76.657750;Antioquia;Turbo;Caribe;Caribe - Litoral;Río Mulatos y otros directos al Caribe
12027040;CURRULAO [12027040];Limnimétrica;Convencional;51;7.9944166670;-76.631750;Antioquia;Turbo;Caribe;Caribe - Litoral;Río Mulatos y otros directos al Caribe
12027050;PUEBLO NUEVO [12027050];Limnimétrica;Convencional;25;8.4150555560;-76.62938889;Antioquia;Necoclí;Caribe;Caribe - Litoral;Río Mulatos y otros directos al Caribe
12027060;DOS EL [12027060];Limnimétrica;Convencional;50;8.1265;-76.69383333;Antioquia;Turbo;Caribe;Caribe - Litoral;Río Mulatos y otros directos al Caribe
12030010;SAN JUAN DE URABA [12030010];Pluviométrica;Convencional;4;8.7552222220;-76.53305556;Antioquia;San Juan De Urabá;Caribe;Caribe - Litoral;Río Mulatos y otros directos al Caribe
12030020;CARMELO EL [12030020];Pluviométrica;Convencional;50;8.62;-76.38;Antioquia;Arboletes;Caribe;Caribe - Litoral;Río San Juan
12037010;CANDELARIA LA [12037010];Limnimétrica;Convencional;5;8.6597222220;-76.44583333;Antioquia;Arboletes;Caribe;Caribe - Litoral;Río San Juan
12037020;LAJA LA HACIENDA [12037020];Limnimétrica;Convencional;2;8.7166666670;-76.48333333;Antioquia;San Juan De Urabá;Caribe;Caribe - Litoral;Río San Juan
12037030;EL CARMELO [12037030];Limnimétrica;Convencional;20;8.62;-76.39;Antioquia;Arboletes;Caribe;Caribe - Litoral;Río San Juan
12037050;SAN PEDRO [12037050];Limnimétrica;Convencional;137;8.2778055560;-76.39130556;Antioquia;San Pedro De Urabá;Caribe;Caribe - Litoral;Río San Juan
12040010;JARAMAGAL [12040010];Pluviométrica;Convencional;90;8.9008333330;-76.22083333;Cordoba;Puerto Escondido;Caribe;Caribe - Litoral;Rio Canalete y otros Arroyos Directos al Caribe
12040020;CANALETE [12040020];Pluviométrica;Convencional;40;8.7869444440;-76.23555556;Cordoba;Canalete;Caribe;Caribe - Litoral;Rio Canalete y otros Arroyos Directos al Caribe
12045010;ARBOLETES [12045010];Climática Principal;Convencional;4;8.8469444440;-76.43194444;Antioquia;Arboletes;Caribe;Caribe - Litoral;Rio Canalete y otros Arroyos Directos al Caribe
12045020;CRISTO REY  - AUT [12045020];Climática Ordinaria;Automática con Telemetría - Convencional;15;9.0711111110;-76.22444444;Cordoba;Puerto Escondido;Caribe;Caribe - Litoral;Rio Canalete y otros Arroyos Directos al Caribe
12047010;CANALETE [12047010];Limnimétrica;Convencional;35;8.7869722220;-76.23641667;Cordoba;Canalete;Caribe;Caribe - Litoral;Rio Canalete y otros Arroyos Directos al Caribe
12065501;SOLMAFORO CARTAGENA [12065501];Ambiental;Automática sin Telemetría;12;10.4200277780;-75.5511388890;Bolivar;Cartagena De Indias;Caribe;Caribe - Litoral;Arroyos Directos al Caribe
12067001;GUAJARO EMBALSE AUT [12067001];Limnigráfica;Automática con Telemetría;6;10.52055556;-75.09627778;Atlantico;Repelón;Caribe;Caribe - Litoral;Arroyos Directos al Caribe
13010010;MOLINILLO [13010010];Pluviométrica;Convencional;500;7.6833333330;-76.05;Cordoba;Tierralta;Caribe;Sinú;Alto Sinú - Urrá
13010020;TUCURA [13010020];Pluviométrica;Convencional;120;7.9333333330;-76.26666667;Cordoba;Tierralta;Caribe;Sinú;Alto Sinú - Urrá
13010040;FLECHA LA [13010040];Pluviométrica;Convencional;500;7.6333333330;-75.96666667;Cordoba;Tierralta;Caribe;Sinú;Alto Sinú - Urrá
13010050;URRA SANDUBO [13010050];Pluviográfica;Convencional;150;7.7515;-76.2277777780;Cordoba;Tierralta;Caribe;Sinú;Alto Sinú - Urrá
13015010;URRA 2 [13015010];Climática Ordinaria;Convencional;88;7.7333333330;-76.20;Cordoba;Tierralta;Caribe;Sinú;Alto Sinú - Urrá
13015020;TUCURA [13015020];Climática Ordinaria;Convencional;110;7.9666666670;-76.25;Cordoba;Tierralta;Caribe;Sinú;Alto Sinú - Urrá
13015030;CAMPO BELLO [13015030];Climática Principal;Convencional;78;7.9833333330;-76.23333333;Cordoba;Tierralta;Caribe;Sinú;Alto Sinú - Urrá
13015040;REPRESA URRA [13015040];Climática Principal;Convencional;300;8.0141666670;-76.20305556;Cordoba;Tierralta;Caribe;Sinú;Medio Sinú
13017010;DESPENSA LA [13017010];Limnigráfica;Convencional;106;7.8666666670;-76.28333333;Cordoba;Tierralta;Caribe;Sinú;Alto Sinú - Urrá
13017020;LIMON EL [13017020];Limnigráfica;Convencional;108;7.8333333330;-76.26666667;Cordoba;Tierralta;Caribe;Sinú;Alto Sinú - Urrá
13017030;SALTO VIEJO [13017030];Limnigráfica;Convencional;131;7.7833333330;-76.23333333;Cordoba;Tierralta;Caribe;Sinú;Alto Sinú - Urrá
13017040;SAN CONALITO [13017040];Limnimétrica;Convencional;100;7.6833333330;-76.11666667;Cordoba;Tierralta;Caribe;Sinú;Alto Sinú - Urrá
13017050;URRA SANDUBO [13017050];Limnigráfica;Automática con Telemetría;150;7.7515;-76.22777778;Cordoba;Tierralta;Caribe;Sinú;Alto Sinú - Urrá
13020010;DESPENSA LA [13020010];Pluviométrica;Convencional;160;7.8833330560;-76.2999997220;Cordoba;Tierralta;Caribe;Sinú;Alto Sinú - Urrá
13020020;CIELO EL [13020020];Pluviométrica;Convencional;650;7.9166666670;-76.41666667;Cordoba;Tierralta;Caribe;Sinú;Alto Sinú - Urrá
13020040;SAIZA [13020040];Pluviométrica;Convencional;287;7.70;-76.48333333;Cordoba;Tierralta;Caribe;Sinú;Alto Sinú - Urrá
13025010;SAIZA [13025010];Climática Principal;Convencional;287;7.70;-76.4833327780;Cordoba;Tierralta;Caribe;Sinú;Alto Sinú - Urrá
13025020;ESMERALDA LA [13025020];Climática Ordinaria;Convencional;170;7.8333333330;-76.25;Cordoba;Tierralta;Caribe;Sinú;Alto Sinú - Urrá
13025030;DESPENSA LA [13025030];Climática Ordinaria;Convencional;160;7.8833333330;-76.30;Cordoba;Tierralta;Caribe;Sinú;Alto Sinú - Urrá
13027010;ESMERALDA LA [13027010];Limnimétrica;Convencional;170;7.75;-76.25;Cordoba;Tierralta;Caribe;Sinú;Alto Sinú - Urrá
13027020;PUERTO MANGO [13027020];Limnimétrica;Convencional;150;7.6166666670;-76.30;Cordoba;Tierralta;Caribe;Sinú;Alto Sinú - Urrá
13027030;CANAFINA [13027030];Limnimétrica;Convencional;90;7.85;-76.31666667;Cordoba;Tierralta;Caribe;Sinú;Alto Sinú - Urrá
13027040;CANO BRAVO - AUT [13027040];Limnimétrica;Automática con Telemetría - Convencional;24;8.2358472220;-74.96043889;Cordoba;Ayapel;Caribe;Sinú;Medio Sinú
13030010;TIERRALTA [13030010];Pluviométrica;Convencional;100;8.1866666670;-76.05305556;Cordoba;Tierralta;Caribe;Sinú;Medio Sinú
13030030;URRA 1 [13030030];Climática Principal;Convencional;78;7.9833330560;-76.2333327780;Cordoba;Tierralta;Caribe;Sinú;Alto Sinú - Urrá
13035010;PUERTO NUEVO [13035010];Climática Principal;Convencional;145;7.95;-76.28333333;Cordoba;Tierralta;Caribe;Sinú;Alto Sinú - Urrá
13035501;AEROPUERTO LOS GARZONES [13035501];Sinóptica Secundaria;Automática con Telemetría;20;8.8258333330;-75.82513889;Cordoba;Montería;Caribe;Sinú;Bajo Sinú
13037010;ANGOSTURA DE URRA [13037010];Limnigráfica;Convencional;77;8;-76.25;Cordoba;Tierralta;Caribe;Sinú;Alto Sinú - Urrá
13037020;PALOMAS LAS [13037020];Limnimétrica;Convencional;27;8.45;-76.01666667;Cordoba;Montería;Caribe;Sinú;Medio Sinú
13037030;PUERTO SALGAR - AUT [13037030];Limnimétrica;Automática con Telemetría;54;8.10;-76.10;Cordoba;Tierralta;Caribe;Sinú;Medio Sinú
13037040;CARRIZOLA [13037040];Limnimétrica;Convencional;55;8.1608333330;-76.09555556;Cordoba;Tierralta;Caribe;Sinú;Medio Sinú
13040010;QUIMARI [13040010];Pluviométrica;Convencional;200;8.0666666670;-76.33333333;Cordoba;Tierralta;Caribe;Sinú;Alto Sinú - Urrá
13040030;PEZVAL [13040030];Pluviométrica;Convencional;80;8.2622222220;-76.16916667;Cordoba;Valencia;Caribe;Sinú;Medio Sinú
13045010;JARAGUAY [13045010];Climática Ordinaria;Convencional;70;8.30;-76.08333333;Cordoba;Valencia;Caribe;Sinú;Medio Sinú
13047010;RUSIA [13047010];Limnimétrica;Convencional;110;8.2833333330;-76.26666667;Cordoba;Valencia;Caribe;Sinú;Medio Sinú
13047020;NUBES LAS [13047020];Limnimétrica;Convencional;70;8.3166666670;-76.10;Cordoba;Valencia;Caribe;Sinú;Medio Sinú
13047030;TIERRALTA [13047030];Limnigráfica;Convencional;100;8.1870555560;-76.06461111;Cordoba;Tierralta;Caribe;Sinú;Medio Sinú
13047040;TORO EL [13047040];Limnimétrica;Convencional;100;8.1134833330;-76.12793611;Cordoba;Tierralta;Caribe;Sinú;Medio Sinú
13047050;PASACABALLOS [13047050];Limnigráfica;Convencional;65;8.05;-76.20;Cordoba;Tierralta;Caribe;Sinú;Medio Sinú
13050010;SANTA LUCIA [13050010];Pluviométrica;Convencional;120;8.8486111110;-76.04527778;Cordoba;Montería;Caribe;Sinú;Bajo Sinú
13050020;SANTA CRUZ HACIENDA [13050020];Pluviométrica;Convencional;220;8.6675;-76.12388889;Cordoba;Montería;Caribe;Sinú;Bajo Sinú
13050030;LOMA VERDE [13050030];Pluviométrica;Convencional;100;8.5019444440;-76.17527778;Cordoba;Montería;Caribe;Sinú;Bajo Sinú
13050040;TRES PIEDRAS [13050040];Pluviométrica;Convencional;30;8.45;-75.96666667;Cordoba;Montería;Caribe;Sinú;Medio Sinú
13055010;VORAGINE LA [13055010];Climática Ordinaria;Convencional;80;8.60;-76.03333333;Cordoba;Montería;Caribe;Sinú;Bajo Sinú
13055020;TENERIFE [13055020];Climática Ordinaria;Convencional;150;8.6833333330;-76.11666667;Cordoba;Montería;Caribe;Sinú;Bajo Sinú
13055030;GALAN [13055030];Climática Ordinaria;Convencional;30;8.6591666670;-75.9725;Cordoba;Montería;Caribe;Sinú;Medio Sinú
13055040;INCODER - AUT [13055040];Agrometeorológica;Automática con Telemetría;37;8.7469444440;-75.91388889;Cordoba;Montería;Caribe;Sinú;Bajo Sinú
13057010;NUEVA COLOMBIA AUT [13057010];Limnimétrica;Automática con Telemetría - Convencional;20;8.4994444440;-75.97861111;Cordoba;Montería;Caribe;Sinú;Medio Sinú
13060010;SAN ANTERITO [13060010];Pluviométrica;Convencional;75;8.5577777780;-75.86111111;Cordoba;Montería;Caribe;Sinú;Medio Sinú
13060020;BUENOS AIRES [13060020];Pluviométrica;Convencional;55;8.4758333330;-75.76527778;Cordoba;Montería;Caribe;Sinú;Medio Sinú
13060030;CARAMELO [13060030];Pluviométrica;Convencional;60;8.2661111110;-75.90388889;Cordoba;Tierralta;Caribe;Sinú;Medio Sinú
13065010;TORPEZA LA [13065010];Climática Ordinaria;Convencional;42;8.4333333330;-75.96666667;Cordoba;Montería;Caribe;Sinú;Medio Sinú
13065020;MARACAYO [13065020];Climática Ordinaria;Convencional;25;8.41;-75.88;Cordoba;Montería;Caribe;Sinú;Medio Sinú
13067010;TRES PIEDRAS [13067010];Limnimétrica;Convencional;20;8.4895;-75.95316667;Cordoba;Montería;Caribe;Sinú;Medio Sinú
13067020;MONTERIA  - AUT [13067020];Limnimétrica;Automática con Telemetría - Convencional;15;8.7516111110;-75.89241667;Cordoba;Montería;Caribe;Sinú;Bajo Sinú
13067030;SANTA HELENA [13067030];Limnimétrica;Convencional;25;8.5654;-75.96590833;Cordoba;Montería;Caribe;Sinú;Medio Sinú
13067040;MARACAYO [13067040];Limnimétrica;Convencional;25;8.41;-75.89;Cordoba;Montería;Caribe;Sinú;Medio Sinú
13067050;TRES PALMAS [13067050];Limnimétrica;Convencional;18;8.5055555560;-75.95222222;Cordoba;Montería;Caribe;Sinú;Medio Sinú
13067060;JUNQUILLO [13067060];Limnimétrica;Convencional;21;8.4079722220;-75.91208333;Cordoba;Montería;Caribe;Sinú;Medio Sinú
13067070;PUENTE EL [13067070];Limnimétrica;Convencional;21;8.4333333330;-75.95;Cordoba;Montería;Caribe;Sinú;Medio Sinú
13067080;BETANCI [13067080];Limnimétrica;Convencional;17;8.5040277780;-75.96369444;Cordoba;Montería;Caribe;Sinú;Medio Sinú
13070010;LIMON EL [13070010];Pluviométrica;Convencional;3;9.3361111110;-75.9375;Cordoba;San Bernardo Del Viento;Caribe;Sinú;Bajo Sinú
13070020;MOMIL [13070020];Pluviométrica;Convencional;20;9.2344444440;-75.68805556;Cordoba;Momil;Caribe;Sinú;Bajo Sinú
13070030;SABANA NUEVA [13070030];Pluviométrica;Convencional;20;9.0333333330;-75.83333333;Cordoba;San Pelayo;Caribe;Sinú;Bajo Sinú
13070040;RABOLARGO [13070040];Pluviométrica;Convencional;19;8.9506111110;-75.74247222;Cordoba;Cereté;Caribe;Sinú;Bajo Sinú
13070050;CERETE [13070050];Pluviométrica;Convencional;20;8.8903333330;-75.786250;Cordoba;Cereté;Caribe;Sinú;Bajo Sinú
13070060;CGA DE ORO [13070060];Pluviométrica;Convencional;10;8.8725;-75.6258327780;Cordoba;Ciénaga De Oro;Caribe;Sinú;Bajo Sinú
13070070;BOCA DE LA CEIBA [13070070];Pluviométrica;Convencional;20;8.8299166670;-75.85611111;Cordoba;Montería;Caribe;Sinú;Bajo Sinú
13070080;SIGLO EL [13070080];Pluviográfica;Convencional;40;8.95;-75.56666667;Cordoba;Ciénaga De Oro;Caribe;Sinú;Bajo Sinú
13070090;SAN CARLOS [13070090];Pluviométrica;Convencional;60;8.7905555560;-75.70138889;Cordoba;San Carlos;Caribe;Sinú;Bajo Sinú
13070100;SANTA ROSA [13070100];Pluviométrica;Convencional;140;8.7411111110;-75.60141667;Cordoba;San Carlos;Caribe;Sinú;Bajo Sinú
13070110;CARRIZAL [13070110];Pluviométrica;Convencional;40;8.6819444440;-75.75352778;Cordoba;San Carlos;Caribe;Sinú;Bajo Sinú
13070120;CALLEMAR [13070120];Pluviométrica;Convencional;95;8.6975;-75.67777778;Cordoba;San Carlos;Caribe;Sinú;Bajo Sinú
13070130;CALIFORNIA [13070130];Pluviográfica;Convencional;13;8.7833333330;-75.83333333;Cordoba;Montería;Caribe;Sinú;Bajo Sinú
13070140;COROZA 1 [13070140];Pluviográfica;Convencional;9;8.8333333330;-75.75;Cordoba;Cereté;Caribe;Sinú;Bajo Sinú
13070150;MOCARI [13070150];Pluviográfica;Convencional;14;8.80;-75.86666667;Cordoba;Montería;Caribe;Sinú;Bajo Sinú
13070160;BERASTEGUI [13070160];Pluviométrica;Convencional;20;8.8833333330;-75.70;Cordoba;Ciénaga De Oro;Caribe;Sinú;Bajo Sinú
13070170;BUENOS AIRES 1 [13070170];Pluviométrica;Convencional;9;8.7727777780;-75.74972222;Cordoba;San Carlos;Caribe;Sinú;Bajo Sinú
13070180;CARRILLO [13070180];Pluviométrica;Convencional;20;8.9844444440;-75.83177778;Cordoba;San Pelayo;Caribe;Sinú;Bajo Sinú
13070190;COROZA 2 [13070190];Pluviométrica;Convencional;9;8.8047222220;-75.7650;Cordoba;San Carlos;Caribe;Sinú;Bajo Sinú
13070200;COROCITO [13070200];Pluviométrica;Convencional;20;8.95;-75.80;Cordoba;San Pelayo;Caribe;Sinú;Bajo Sinú
13070210;COTORRA [13070210];Pluviométrica;Convencional;20;9.0333333330;-75.78333333;Cordoba;Cotorra;Caribe;Sinú;Bajo Sinú
13070220;FLOR DEL SINU [13070220];Pluviométrica;Convencional;13;8.8166666670;-75.85;Cordoba;Montería;Caribe;Sinú;Bajo Sinú
13070230;HORIZONTE [13070230];Pluviométrica;Convencional;10;8.7666666670;-75.86666667;Cordoba;Montería;Caribe;Sinú;Bajo Sinú
13070240;CERRO BAHIA [13070240];Pluviométrica;Convencional;50;9.30;-75.85;Cordoba;Lorica;Caribe;Sinú;Bajo Sinú
13070250;TRAPICHE EL [13070250];Pluviométrica;Convencional;4;9.3166666670;-75.88333333;Cordoba;Lorica;Caribe;Sinú;Bajo Sinú
13070260;LAMAS 3 [13070260];Pluviométrica;Convencional;18;8.7333333330;-75.85;Cordoba;Montería;Caribe;Sinú;Bajo Sinú
13070270;MONTERIA [13070270];Pluviométrica;Convencional;17;8.8265277780;-75.84183333;Cordoba;Montería;Caribe;Sinú;Bajo Sinú
13070280;SABANAL [13070280];Pluviométrica;Convencional;10;8.7886111110;-75.75138889;Cordoba;Montería;Caribe;Sinú;Bajo Sinú
13070290;TAMPA [13070290];Pluviométrica;Convencional;20;8.6247222220;-75.76722222;Cordoba;Montería;Caribe;Sinú;Bajo Sinú
13070300;CHIMA [13070300];Pluviométrica;Convencional;30;9.15;-75.61666667;Cordoba;Chima;Caribe;Sinú;Bajo Sinú
13070310;CHIMA [13070310];Pluviográfica;Convencional;30;9.15;-75.61666667;Cordoba;Chima;Caribe;Sinú;Bajo Sinú
13070320;CHIMA [13070320];Pluviométrica;Convencional;20;9.1333330560;-75.6333327780;Cordoba;Chima;Caribe;Sinú;Bajo Sinú
13070330;ICOTEAS LAS [13070330];Pluviográfica;Convencional;20;9.05;-75.76666667;Cordoba;Cotorra;Caribe;Sinú;Bajo Sinú
13070340;PALMA DE VINO [13070340];Pluviométrica;Convencional;20;8.7333333330;-75.80;Cordoba;Montería;Caribe;Sinú;Bajo Sinú
13070380;CERETE [13070380];Pluviométrica;Convencional;20;8.8850833330;-75.7974166670;Cordoba;Cereté;Caribe;Sinú;Bajo Sinú
13070390;CIENAGA DE ORO [13070390];Pluviométrica;Convencional;25;8.87;-75.63;Cordoba;Ciénaga De Oro;Caribe;Sinú;Bajo Sinú
13070420;CNO EL MUERTO [13070420];Pluviométrica;Convencional;50;9.30;-75.85;Cordoba;Lorica;Caribe;Sinú;Bajo Sinú
13070430;VENECIA [13070430];Pluviométrica;Convencional;50;9.1952777780;-75.54111111;Cordoba;San Andrés De Sotavento;Caribe;Sinú;Bajo Sinú
13070440;VILLA MARCELA [13070440];Pluviométrica;Convencional;40;9.3522222220;-75.71888889;Cordoba;San Antero;Caribe;Caribe - Litoral;Directos Caribe Golfo de Morrosquillo
13070450;AGUAS MOHOSAS [13070450];Pluviométrica;Convencional;75;9.2511111110;-75.49166667;Cordoba;San Andrés De Sotavento;Caribe;Caribe - Litoral;Directos Caribe Golfo de Morrosquillo
13075010;CHIMA [13075010];Climática Ordinaria;Convencional;20;9.150750;-75.62208333;Cordoba;Chima;Caribe;Sinú;Bajo Sinú
13075020;SALADO EL [13075020];Climática Ordinaria;Convencional;40;8.9138888890;-75.58222222;Cordoba;Ciénaga De Oro;Caribe;Sinú;Bajo Sinú
13075030;TURIPANA [13075030];Climática Principal;Convencional;20;8.8395277780;-75.80188889;Cordoba;Cereté;Caribe;Sinú;Bajo Sinú
13075040;AEROPUERTO BERASTEGUI [13075040];Sinóptica Secundaria;Convencional;40;8.8833333330;-75.66666667;Cordoba;Ciénaga De Oro;Caribe;Sinú;Bajo Sinú
13075050;UNIV DE CORDOBA [13075050];Agrometeorológica;Convencional;15;8.7938888890;-75.86152778;Cordoba;Montería;Caribe;Sinú;Bajo Sinú
13075060;MONTERIA [13075060];Climática Ordinaria;Convencional;20;8.75;-75.88333333;Cordoba;Montería;Caribe;Sinú;Bajo Sinú
13077010;SABANA NUEVA [13077010];Limnimétrica;Convencional;9;9.0322222220;-75.84583333;Cordoba;San Pelayo;Caribe;Sinú;Bajo Sinú
13077020;MOMIL [13077020];Limnimétrica;Convencional;8;9.2388888890;-75.67638889;Cordoba;Momil;Caribe;Sinú;Bajo Sinú
13077030;PALMA CENTRAL [13077030];Limnimétrica;Convencional;6;9.1956111110;-75.81819444;Cordoba;Lorica;Caribe;Sinú;Bajo Sinú
13077040;LA DOCTRINA [13077040];Limnimétrica;Convencional;20;9.2972222220;-75.8927777780;Cordoba;Lorica;Caribe;Sinú;Bajo Sinú
13077050;EL BONGO [13077050];Limnimétrica;Convencional;11;8.9375833330;-75.85641667;Cordoba;San Pelayo;Caribe;Sinú;Bajo Sinú
13077060;COTOCA ABAJO  - AUT [13077060];Limnimétrica;Automática con Telemetría - Convencional;6;9.2244444440;-75.83444444;Cordoba;Lorica;Caribe;Sinú;Bajo Sinú
13077070;CIENAGA DE ORO [13077070];Limnimétrica;Convencional;10;8.87;-75.63;Cordoba;Ciénaga De Oro;Caribe;Sinú;Bajo Sinú
13077080;HIGAL EL [13077080];Limnimétrica;Convencional;8;8.9441388890;-75.60286111;Cordoba;Ciénaga De Oro;Caribe;Sinú;Bajo Sinú
13077090;BERASTEGUI [13077090];Limnimétrica;Convencional;9;8.9333333330;-75.71666667;Cordoba;Ciénaga De Oro;Caribe;Sinú;Bajo Sinú
13077100;MOCARI [13077100];Limnigráfica;Convencional;14;8.80;-75.85;Cordoba;Montería;Caribe;Sinú;Bajo Sinú
13077110;CASA BOMBAS [13077110];Limnimétrica;Convencional;4;9.30;-75.90;Cordoba;Lorica;Caribe;Sinú;Bajo Sinú
13077120;SAN CARLOS [13077120];Limnimétrica;Convencional;10;8.80;-75.70;Cordoba;San Carlos;Caribe;Sinú;Bajo Sinú
13077130;POLITO EL [13077130];Limnimétrica;Convencional;8;8.9666666670;-75.71666667;Cordoba;Ciénaga De Oro;Caribe;Sinú;Bajo Sinú
13077140;PUENTE SAN CARLOS [13077140];Limnimétrica;Convencional;10;8.90;-75.73333333;Cordoba;Ciénaga De Oro;Caribe;Sinú;Bajo Sinú
13077150;CERETE [13077150];Limnimétrica;Convencional;20;8.8850833330;-75.79741667;Cordoba;Cereté;Caribe;Sinú;Bajo Sinú
13077160;VENECIA [13077160];Limnimétrica;Convencional;92;9.1833333330;-75.51666667;Cordoba;San Andrés De Sotavento;Caribe;Sinú;Bajo Sinú
13077170;LORICA [13077170];Limnimétrica;Convencional;5;9.2266722220;-75.81500833;Cordoba;Lorica;Caribe;Sinú;Bajo Sinú
13077180;SICARA [13077180];Limnimétrica;Convencional;2;9.35;-75.95;Cordoba;San Bernardo Del Viento;Caribe;Sinú;Bajo Sinú
13077190;SOLEDAD [13077190];Limnimétrica;Convencional;1;9.35;-75.86666667;Cordoba;San Antero;Caribe;Sinú;Bajo Sinú
13077210;ESMERALDA LA [13077210];Limnimétrica;Convencional;60;9.20;-75.56666667;Cordoba;San Andrés De Sotavento;Caribe;Sinú;Bajo Sinú
13077220;BAJO GRANDE [13077220];Limnimétrica;Convencional;48;9.15;-75.51666667;Cordoba;San Andrés De Sotavento;Caribe;Sinú;Bajo Sinú
13077240;COCORILLA [13077240];Limnimétrica;Convencional;50;9.30;-75.78333333;Cordoba;San Antero;Caribe;Sinú;Bajo Sinú
13077250;MARIA LA [13077250];Limnimétrica;Convencional;120;9.20;-75.45;Sucre;Sincelejo;Caribe;Sinú;Bajo Sinú
13077260;CUESANTA ABAJO [13077260];Limnimétrica;Convencional;80;9.15;-75.51666667;Cordoba;San Andrés De Sotavento;Caribe;Sinú;Bajo Sinú
13077270;CRUZ CHIQUITA [13077270];Limnimétrica;Convencional;120;9.2166666670;-75.50;Cordoba;San Andrés De Sotavento;Caribe;Sinú;Bajo Sinú
13077280;GARZONES LOS [13077280];Limnimétrica;Convencional;18;8.8266388890;-75.84197222;Cordoba;Montería;Caribe;Sinú;Bajo Sinú
13077300;EL MONTON [13077300];Limnimétrica;Convencional;13;8.8683333330;-75.83555556;Cordoba;Montería;Caribe;Sinú;Bajo Sinú
13080010;SAN ANTONIO [13080010];Pluviométrica;Convencional;50;8.9358611110;-75.95333333;Cordoba;San Pelayo;Caribe;Sinú;Bajo Sinú
13080020;LORICA [13080020];Pluviométrica;Convencional;80;9.25;-75.83333333;Cordoba;Lorica;Caribe;Sinú;Bajo Sinú
13080030;SAN ANTONIO [13080030];Pluviográfica;Convencional;50;8.9333333330;-75.98333333;Cordoba;San Pelayo;Caribe;Sinú;Bajo Sinú
13080040;LORICA [13080040];Pluviométrica;Convencional;80;9.25;-75.83333333;Cordoba;Lorica;Caribe;Sinú;Bajo Sinú
13080060;DOCTRINA LA [13080060];Pluviométrica;Convencional;4;9.30;-75.88333333;Cordoba;Lorica;Caribe;Sinú;Bajo Sinú
13085010;DOCTRINA LA [13085010];Climática Principal;Convencional;20;9.2972222220;-75.89277778;Cordoba;Lorica;Caribe;Sinú;Bajo Sinú
13085030;SAN BERNARDO DEL VIENTO [13085030];Climática Ordinaria;Automática con Telemetría - Convencional;22;9.37;-75.95;Cordoba;San Bernardo Del Viento;Caribe;Sinú;Bajo Sinú
13085050;LORICA  ITA - AUT [13085050];Climática Principal;Automática con Telemetría;30;9.2527222220;-75.84441667;Cordoba;Lorica;Caribe;Sinú;Bajo Sinú
13087010;JUNIN [13087010];Limnimétrica;Convencional;24;9.2333333330;-76.03333333;Cordoba;San Bernardo Del Viento;Caribe;Sinú;Bajo Sinú
13090010;SABANETICA [13090010];Pluviométrica;Convencional;1;9.8288888890;-75.43277778;Sucre;San Onofre;Magdalena Cauca;Bajo Magdalena;Canal del Dique margen izquierda
13090020;SAN ONOFRE [13090020];Pluviométrica;Convencional;55;9.7541666670;-75.53805556;Sucre;San Onofre;Caribe;Caribe - Litoral;Directos Caribe Golfo de Morrosquillo
13090030;BERRUGAS [13090030];Pluviométrica;Convencional;1;9.9102777780;-75.60055556;Sucre;San Onofre;Caribe;Atrato - Darién;Río Andágueda
13090040;CHALAN [13090040];Pluviométrica;Convencional;100;9.5386111110;-75.3225;Sucre;Chalán;Caribe;Caribe - Litoral;Directos Caribe Golfo de Morrosquillo
13090050;TOLUVIEJO [13090050];Pluviométrica;Convencional;60;9.4380;-75.44;Sucre;Tolú Viejo;Caribe;Caribe - Litoral;Directos Caribe Golfo de Morrosquillo
13090060;PARAISO EL [13090060];Pluviométrica;Convencional;100;9.4738888890;-75.37083333;Sucre;Colosó;Caribe;Caribe - Litoral;Directos Caribe Golfo de Morrosquillo
13090070;TOLU [13090070];Pluviométrica;Convencional;2;9.5191666670;-75.59111111;Sucre;Tolú;Caribe;Caribe - Litoral;Directos Caribe Golfo de Morrosquillo
13090080;BELEN HACIENDA [13090080];Pluviométrica;Convencional;60;9.8194444440;-75.41027778;Sucre;San Onofre;Magdalena Cauca;Bajo Magdalena;Canal del Dique margen izquierda
13090090;SANTA ANGELA HACIENDA [13090090];Pluviométrica;Convencional;20;9.4852777780;-75.5125;Sucre;Tolú;Caribe;Caribe - Litoral;Directos Caribe Golfo de Morrosquillo
13090100;ARGENTINA LA HACIENDA [13090100];Pluviométrica;Convencional;20;9.4858333330;-75.46861111;Sucre;Tolú Viejo;Caribe;Caribe - Litoral;Directos Caribe Golfo de Morrosquillo
13090110;PALO ALTO [13090110];Pluviométrica;Convencional;50;9.8175;-75.41833333;Sucre;San Onofre;Magdalena Cauca;Bajo Magdalena;Canal del Dique margen izquierda
13090230;PASTORA LA [13090230];Pluviométrica;Convencional;58;9.2933333330;-75.49194444;Sucre;Sincelejo;Caribe;Caribe - Litoral;Directos Caribe Golfo de Morrosquillo
13095010;COVENAS - AUT [13095010];Meteorológica Especial;Automática con Telemetría;1;9.3833333330;-75.66666667;Sucre;Tolú;Caribe;Caribe - Litoral;Directos Caribe Golfo de Morrosquillo
13095020;PRIMATES [13095020];Pluviométrica;Convencional;200;9.5301388890;-75.35136111;Sucre;Colosó;Caribe;Caribe - Litoral;Directos Caribe Golfo de Morrosquillo
13097010;TOLUVIEJO [13097010];Limnimétrica;Convencional;59;9.4370;-75.4390;Sucre;Tolú Viejo;Caribe;Caribe - Litoral;Directos Caribe Golfo de Morrosquillo
13097020;PARAISO EL [13097020];Limnimétrica;Convencional;90;9.50;-75.40;Sucre;Colosó;Caribe;Caribe - Litoral;Directos Caribe Golfo de Morrosquillo
13097030;CARACOL [13097030];Limnimétrica;Convencional;100;9.40;-75.40;Sucre;Tolú Viejo;Caribe;Caribe - Litoral;Directos Caribe Golfo de Morrosquillo
13097040;CERRO BOMBA [13097040];Limnimétrica;Convencional;50;9.2666666670;-75.50;Cordoba;San Andrés De Sotavento;Caribe;Caribe - Litoral;Directos Caribe Golfo de Morrosquillo
13097050;PASTORA LA [13097050];Limnimétrica;Convencional;58;9.2666666670;-75.48333333;Sucre;Sincelejo;Caribe;Caribe - Litoral;Directos Caribe Golfo de Morrosquillo
13097060;NUMEROS LOS [13097060];Limnimétrica;Convencional;380;9.6333333330;-75.21666667;Sucre;Ovejas;Magdalena Cauca;Bajo Magdalena- Cauca -San Jorge;Bajo San Jorge - La Mojana
13097070;PELONA LA [13097070];Limnimétrica;Convencional;20;9.75;-75.58333333;Sucre;San Onofre;Caribe;Caribe - Litoral;Directos Caribe Golfo de Morrosquillo
14010010;PIOJO [14010010];Pluviométrica;Convencional;320;10.74611111;-75.10797222;Atlantico;Piojó;Caribe;Caribe - Litoral;Arroyos Directos al Caribe
14010020;HIBACHARO [14010020];Pluviométrica;Convencional;80;10.72188889;-75.14011111;Atlantico;Piojó;Caribe;Caribe - Litoral;Arroyos Directos al Caribe
14010030;BAYUNCA [14010030];Pluviométrica;Convencional;35;10.52416667;-75.40138889;Bolivar;Cartagena De Indias;Caribe;Caribe - Litoral;Arroyos Directos al Caribe
14010040;BUENAVISTA [14010040];Pluviográfica;Convencional;60;10.75;-75.08333333;Atlantico;Piojó;Caribe;Caribe - Litoral;Arroyos Directos al Caribe
14010050;CAÑAVERAL [14010050];Pluviométrica;Convencional;75;10.41;-75.34;Bolivar;Turbaco;Caribe;Caribe - Litoral;Arroyos Directos al Caribe
14010090;PORVENIR EL [14010090];Pluviométrica;Convencional;40;10.71022222;-75.16227778;Atlantico;Piojó;Caribe;Caribe - Litoral;Arroyos Directos al Caribe
14010100;PINTADA LA [14010100];Pluviométrica;Convencional;200;10.95511111;-74.9950;Atlantico;Tubará;Caribe;Caribe - Litoral;Arroyos Directos al Caribe
14015010;GALERAZAMBA  - AUT [14015010];Climática Principal;Automática con Telemetría;20;10.79416667;-75.26055556;Bolivar;Santa Catalina;Caribe;Caribe - Litoral;Arroyos Directos al Caribe
14015030;ESCUELA NAVAL CIOH [14015030];Climática Principal;Convencional;1;10.44722222;-75.51611111;Bolivar;Cartagena De Indias;Caribe;Caribe - Litoral;Arroyos Directos al Caribe
14015060;ISLAS DEL ROSARIO [14015060];Climática Principal;Convencional;3;10.18333333;-75.75;Bolivar;Cartagena De Indias;Caribe;Sinú;Bajo Sinú
14015070;ISLA DEL TESORO [14015070];Meteorológica Especial;Convencional;2;10.23333333;-75.75;Bolivar;Cartagena De Indias;Caribe;Sinú;Bajo Sinú
14015080;AEROPUERTO RAFAEL NUNEZ [14015080];Sinóptica Principal;Automática con Telemetría;2;10.447250;-75.51602778;Bolivar;Cartagena De Indias;Caribe;Caribe - Litoral;Arroyos Directos al Caribe
14017701;MAHATES - AUT [14017701];Limnigráfica;Automática con Telemetría;9;10.23978611;-75.20380833;Bolivar;Mahates;Magdalena Cauca;Bajo Magdalena;Canal del Dique margen izquierda
14017702;BARRANCAVIEJA - AUT [14017702];Limnigráfica;Automática con Telemetría;9;10.16452778;-74.94066667;Bolivar;Calamar;Magdalena Cauca;Bajo Magdalena;Directos al Bajo Magdalena entre El Plato y Calamar
14019010;CARTAGENA [14019010];Meteorologica Marina;Convencional;0;10.38720833;-75.52989722;Bolivar;Cartagena De Indias;Caribe;Caribe - Litoral;Arroyos Directos al Caribe
14019020;ISLA DEL ROSARIO [14019020];Meteorologica Marina;Convencional;2;10.19541667;-75.74730556;Bolivar;Cartagena De Indias;Caribe;Sinú;Bajo Sinú
14019030;ESCUELA NAVAL CIOH - AUT [14019030];Meteorologica Marina;Automática con Telemetría;1;10.39056389;-75.53383056;Bolivar;Cartagena De Indias;Caribe;Caribe - Litoral;Arroyos Directos al Caribe
14019040;TAJAMAR OCCIDENTAL [14019040];Meteorologica Marina;Automática con Telemetría;1;11.10630556;-74.85472222;Atlantico;Barranquilla;Magdalena Cauca;Bajo Magdalena;Cga Grande de Santa Marta
15010010;MINCA [15010010];Pluviométrica;Convencional;640;11.14083333;-74.12;Magdalena;Santa Marta;Caribe;Caribe - Guajira;Río  Piedras - Río Manzanares
15010020;BURITACA [15010020];Pluviométrica;Convencional;30;11.25013056;-73.764750;Magdalena;Santa Marta;Caribe;Caribe - Guajira;Rio Guachaca - Mendiguaca y Buritaca
15010030;GUACHACA 2 [15010030];Pluviométrica;Convencional;750;11.10;-73.85;Magdalena;Santa Marta;Caribe;Caribe - Guajira;Rio Guachaca - Mendiguaca y Buritaca
15010040;VISTA NIEVES [15010040];Pluviométrica;Convencional;20;11.08536111;-74.07986111;Magdalena;Santa Marta;Caribe;Caribe - Guajira;Río  Piedras - Río Manzanares
15010050;CIENAGA GRANDE [15010050];Pluviométrica;Convencional;20;11;-74.25;Magdalena;Ciénaga;Magdalena Cauca;Bajo Magdalena;Cga Grande de Santa Marta
15010070;FILTRO DE AGUA [15010070];Pluviométrica;Convencional;25;11.01666667;-74.23333333;Magdalena;Ciénaga;Magdalena Cauca;Bajo Magdalena;Cga Grande de Santa Marta
15010100;PLTA GAIRA [15010100];Pluviométrica;Convencional;150;11.18333333;-74.16666667;Magdalena;Santa Marta;Caribe;Caribe - Guajira;Río  Piedras - Río Manzanares
15010140;TORRE TV [15010140];Pluviométrica;Convencional;2700;11.11666667;-74.03333333;Magdalena;Santa Marta;Caribe;Caribe - Guajira;Río  Piedras - Río Manzanares
15010150;TAGUA LA [15010150];Pluviométrica;Convencional;2600;11.11666667;-74.05;Magdalena;Santa Marta;Caribe;Caribe - Guajira;Río  Piedras - Río Manzanares
15010160;DELICIAS LAS [15010160];Pluviométrica;Convencional;900;11.11666667;-74.13333333;Magdalena;Santa Marta;Caribe;Caribe - Guajira;Río  Piedras - Río Manzanares
15010170;ONACA [15010170];Pluviométrica;Convencional;900;11.19972222;-73.84027778;Magdalena;Santa Marta;Caribe;Caribe - Guajira;Rio Guachaca - Mendiguaca y Buritaca
15010190;CACAOS LOS [15010190];Pluviométrica;Convencional;500;11.20;-74.08333333;Magdalena;Santa Marta;Caribe;Caribe - Guajira;Río  Piedras - Río Manzanares
15010200;PLASTICOS MAGDALEN [15010200];Pluviométrica;Convencional;20;11.20;-74.20;Magdalena;Santa Marta;Caribe;Caribe - Guajira;Río  Piedras - Río Manzanares
15010240;CUBILETE EL BONDA [15010240];Pluviométrica;Convencional;50;11.23333333;-74.15;Magdalena;Santa Marta;Caribe;Caribe - Guajira;Río  Piedras - Río Manzanares
15010300;GUACHACA [15010300];Pluviométrica;Convencional;45;11.25638889;-73.83666667;Magdalena;Santa Marta;Caribe;Caribe - Guajira;Rio Guachaca - Mendiguaca y Buritaca
15010310;FILO CARTAGENA [15010310];Pluviométrica;Convencional;750;11.10027778;-73.84322222;Magdalena;Santa Marta;Caribe;Caribe - Guajira;Rio Guachaca - Mendiguaca y Buritaca
15010501;IDEAM SANTA MARTA [15010501];Pluviométrica;Convencional;20;11.22222222;-74.17991667;Magdalena;Santa Marta;Caribe;Caribe - Guajira;Río  Piedras - Río Manzanares
15015010;CENTRO AGRO SENA [15015010];Climática Ordinaria;Convencional;7;11.21666667;-74.18333333;Magdalena;Santa Marta;Caribe;Caribe - Guajira;Río  Piedras - Río Manzanares
15015020;YE LA [15015020];Climática Ordinaria;Convencional;20;10.99241667;-74.21113889;Magdalena;Ciénaga;Magdalena Cauca;Bajo Magdalena;Cga Grande de Santa Marta
15015030;PUNTA BETIN [15015030];Climática Ordinaria;Convencional;15;11.47233889;-74.21320278;Magdalena;Santa Marta;Caribe;Caribe - Guajira;Río  Piedras - Río Manzanares
15015050;AEROPUERTO SIMON BOLIVAR [15015050];Sinóptica Principal;Convencional;4;11.11469440;-74.2310277780;Magdalena;Santa Marta;Caribe;Caribe - Guajira;Río  Piedras - Río Manzanares
15015060;SAN LORENZO  - AUT [15015060];Climática Principal;Automática con Telemetría - Convencional;2200;11.11108333;-74.05469444;Magdalena;Santa Marta;Caribe;Caribe - Guajira;Río  Piedras - Río Manzanares
15015090;CANAVERALES [15015090];Climática Ordinaria;Convencional;30;11.26666667;-73.88333333;Magdalena;Santa Marta;Caribe;Caribe - Guajira;Rio Guachaca - Mendiguaca y Buritaca
15015100;PARQUE TAYRONA [15015100];Climática Ordinaria;Automática con Telemetría - Convencional;23;11.301674;-73.928809;Magdalena;Santa Marta;Caribe;Caribe - Guajira;Río  Piedras - Río Manzanares
15015110;ALTO DE MIRA [15015110];Climática Ordinaria;Convencional;180;11.0915;-73.93238889;Magdalena;Santa Marta;Caribe;Caribe - Guajira;Rio Guachaca - Mendiguaca y Buritaca
15015120;UNIVERSIDAD TECNOLOGICA  - AUT [15015120];Climática Principal;Automática con Telemetría - Convencional;7;11.22305556;-74.18591667;Magdalena;Santa Marta;Caribe;Caribe - Guajira;Río  Piedras - Río Manzanares
15017010;GAIRA [15017010];Limnimétrica;Convencional;10;11.18333333;-74.18333333;Magdalena;Santa Marta;Caribe;Caribe - Guajira;Río  Piedras - Río Manzanares
15017020;LA REVUELTA [15017020];Limnimétrica;Convencional;50;11.27763889;-73.94155556;Magdalena;Santa Marta;Caribe;Caribe - Guajira;Río  Piedras - Río Manzanares
15017030;MINCA  - AUT [15017030];Limnigráfica;Automática con Telemetría - Convencional;625;11.142548;-74.111813;Magdalena;Santa Marta;Caribe;Caribe - Guajira;Río  Piedras - Río Manzanares
15017040;GUACHACA [15017040];Limnimétrica;Convencional;18;11.246841;-73.840049;Magdalena;Santa Marta;Caribe;Caribe - Guajira;Rio Guachaca - Mendiguaca y Buritaca
15017050;SAN P. ALEJANDRINO [15017050];Limnimétrica;Convencional;20;11.23333333;-74.18333333;Magdalena;Santa Marta;Caribe;Caribe - Guajira;Río  Piedras - Río Manzanares
15017060;BOCATOMA SANTA MARTA [15017060];Limnimétrica;Convencional;245;11.205144;-74.098192;Magdalena;Santa Marta;Caribe;Caribe - Guajira;Río  Piedras - Río Manzanares
15017070;NARANJOS LOS [15017070];Limnigráfica;Convencional;40;11.28333333;-73.91666667;Magdalena;Santa Marta;Caribe;Caribe - Guajira;Río  Piedras - Río Manzanares
15017080;BURITACA [15017080];Limnimétrica;Convencional;11;11.250034;-73.764338;Magdalena;Santa Marta;Caribe;Caribe - Guajira;Rio Guachaca - Mendiguaca y Buritaca
15020010;ALTO RIO DON DIEGO [15020010];Pluviométrica;Convencional;480;11.26666667;-73.68333333;Magdalena;Santa Marta;Caribe;Caribe - Guajira;Río Don Diego
15027010;PUENTE CARRETERA - DON DIEGO [15027010];Limnimétrica;Convencional;13;11.240026;-73.696478;Magdalena;Santa Marta;Caribe;Caribe - Guajira;Río Don Diego
15030010;DIBULLA [15030010];Pluviométrica;Convencional;5;11.27522222;-73.31219444;La Guajira;Dibulla;Caribe;Caribe - Guajira;Río Ancho y Otros Directos al caribe
15030020;PALOMINO [15030020];Pluviométrica;Convencional;30;11.24416667;-73.57388889;Magdalena;Santa Marta;Caribe;Caribe - Guajira;Río Ancho y Otros Directos al caribe
15030030;ALTO RIO DIBULLA [15030030];Pluviométrica;Convencional;390;11.11666667;-73.30;La Guajira;Dibulla;Caribe;Caribe - Guajira;Río Ancho y Otros Directos al caribe
15030040;ALTO RIO ANCHO [15030040];Pluviométrica;Convencional;220;11.06666667;-73.46666667;La Guajira;Dibulla;Caribe;Caribe - Guajira;Río Ancho y Otros Directos al caribe
15030050;CERRO CUBA [15030050];Pluviométrica;Convencional;400;11.06666667;-73.40;La Guajira;Dibulla;Caribe;Caribe - Guajira;Río Ancho y Otros Directos al caribe
15035010;ROSALES LOS HACIENDA [15035010];Climática Ordinaria;Convencional;80;11.21666667;-73.45;La Guajira;Dibulla;Caribe;Caribe - Guajira;Río Ancho y Otros Directos al caribe
15035020;TERMOGUAJIRA  - AUT [15035020];Climática Ordinaria;Automática con Telemetría - Convencional;5;11.2525;-73.41138889;La Guajira;Dibulla;Caribe;Caribe - Guajira;Río Ancho y Otros Directos al caribe
15037010;ANCHO [15037010];Limnimétrica;Convencional;50;11.20505556;-73.46130556;La Guajira;Dibulla;Caribe;Caribe - Guajira;Río Ancho y Otros Directos al caribe
15037020;PUENTE CARRETERA - PALOMINO [15037020];Limnimétrica;Convencional;30;11.24455556;-73.56861111;Magdalena;Santa Marta;Caribe;Caribe - Guajira;Río Ancho y Otros Directos al caribe
15037030;MINGUEO [15037030];Limnimétrica;Convencional;44;11.21222222;-73.40333333;La Guajira;Dibulla;Caribe;Caribe - Guajira;Río Ancho y Otros Directos al caribe
15040010;ALTO RIO CORUAL [15040010];Pluviométrica;Convencional;200;11.23333333;-73.15;La Guajira;Riohacha;Caribe;Caribe - Guajira;Río Tapias
15040020;JUANA VIEJA [15040020];Pluviométrica;Convencional;1100;11.11666667;-73.05;La Guajira;San Juan Del Cesar;Caribe;Caribe - Guajira;Río Tapias
15040030;RIO SAN FRANCISCO [15040030];Pluviométrica;Convencional;180;11.11666667;-72.98333333;La Guajira;Riohacha;Caribe;Caribe - Guajira;Río Tapias
15045010;MATITAS [15045010];Pluviométrica;Convencional;20;11.26388889;-73.03027778;La Guajira;Riohacha;Caribe;Caribe - Guajira;Río Tapias
15047010;ANAIME [15047010];Limnigráfica;Convencional;31;11.23333333;-73.05;La Guajira;Riohacha;Caribe;Caribe - Guajira;Río Tapias
15047020;PUENTE BOMBA [15047020];Limnimétrica;Convencional;14;11.262395;-73.1583;La Guajira;Riohacha;Caribe;Caribe - Guajira;Río Tapias
15050010;CAMARONES [15050010];Pluviométrica;Convencional;5;11.42883333;-73.05272222;La Guajira;Riohacha;Caribe;Caribe - Guajira;Río Camarones y otros directos Caribe
15050020;FLORIDA LA [15050020];Pluviométrica;Convencional;46;11.25;-72.91666667;La Guajira;Riohacha;Caribe;Caribe - Guajira;Río Camarones y otros directos Caribe
15055010;FLORIDA LA [15055010];Climática Ordinaria;Convencional;46;11.25;-72.91666667;La Guajira;Riohacha;Caribe;Caribe - Guajira;Río Camarones y otros directos Caribe
15060010;LOS REMEDIOS [15060010];Pluviométrica;Convencional;10;11.38177778;-72.9135;La Guajira;Riohacha;Caribe;Caribe - Guajira;Río Camarones y otros directos Caribe
15060020;CUESTECITA [15060020];Pluviométrica;Convencional;93;11.19738889;-72.61180556;La Guajira;Albania;Caribe;Caribe - Guajira;Río Ranchería
15060030;CRUZ LA HACIENDA [15060030];Pluviométrica;Convencional;195;10.96666667;-72.76666667;La Guajira;Barrancas;Caribe;Caribe - Guajira;Río Ranchería
15060040;LAGUNITAS [15060040];Pluviométrica;Convencional;900;11.03436111;-72.87752778;La Guajira;Barrancas;Caribe;Caribe - Guajira;Río Ranchería
15060050;SABANAS DE MANUELA [15060050];Pluviométrica;Convencional;420;10.9530;-73.04797222;La Guajira;Distracción;Caribe;Caribe - Guajira;Río Ranchería
15060060;LAS LOMITAS  [15060060];Pluviométrica;Convencional;300;10.93516667;-72.68466667;La Guajira;Barrancas;Caribe;Caribe - Guajira;Río Ranchería
15060070;JUGUETE EL [15060070];Pluviométrica;Convencional;390;10.7860;-72.76836111;La Guajira;Fonseca;Caribe;Caribe - Guajira;Río Ranchería
15060080;CANAVERALES [15060080];Pluviométrica;Convencional;230;10.75777778;-72.84522222;La Guajira;San Juan Del Cesar;Caribe;Caribe - Guajira;Río Ranchería
15060090;GUACAMAYO [15060090];Pluviométrica;Convencional;220;11.06338889;-72.77669444;La Guajira;Hato Nuevo;Caribe;Caribe - Guajira;Río Ranchería
15060110;EJEMPLO EL [15060110];Pluviométrica;Convencional;116;11.13333333;-72.60;La Guajira;Hato Nuevo;Caribe;Caribe - Guajira;Río Ranchería
15060120;PALMAR EL HACIENDA [15060120];Pluviográfica;Convencional;105;11.08333333;-72.66666667;La Guajira;Barrancas;Caribe;Caribe - Guajira;Río Ranchería
15060130;ESPERANZA LA HACIENDA [15060130];Pluviográfica;Convencional;87;11.1420;-72.50847222;La Guajira;Maicao;Caribe;Caribe - Guajira;Río Ranchería
15060140;SAN FRANCISCO [15060140];Pluviográfica;Convencional;115;11.15;-72.53333333;La Guajira;Albania;Caribe;Caribe - Guajira;Río Ranchería
15060150;EL CONEJO  [15060150];Pluviométrica;Convencional;350;10.77794444;-72.79819444;La Guajira;Fonseca;Caribe;Caribe - Guajira;Río Ranchería
15060160;PAJONALES HACIENDA [15060160];Pluviográfica;Convencional;116;11.08333333;-72.60;La Guajira;Barrancas;Caribe;Caribe - Guajira;Río Ranchería
15060180; LA GLORIA[15060180];Pluviométrica;Convencional;680;11.13802778;-72.7115;La Guajira;Hato Nuevo;Caribe;Caribe - Guajira;Río Ranchería
15060190;FONSECA [15060190];Pluviométrica;Convencional;180;10.90;-72.83333333;La Guajira;Fonseca;Caribe;Caribe - Guajira;Río Ranchería
15060200;ROCHE [15060200];Pluviográfica;Convencional;100;11.07505556;-72.64733333;La Guajira;Barrancas;Caribe;Caribe - Guajira;Río Ranchería
15060210;TAJO SUR [15060210];Pluviográfica;Convencional;95;11.07688889;-72.6750;La Guajira;Barrancas;Caribe;Caribe - Guajira;Río Ranchería
15060230;ARROYO ARENA [15060230];Pluviométrica;Convencional;58;11.28333333;-72.88333333;La Guajira;Riohacha;Caribe;Caribe - Guajira;Río Ranchería
15060260;ANTILLAS LAS [15060260];Pluviométrica;Convencional;170;10.88333333;-72.88333333;La Guajira;Fonseca;Caribe;Caribe - Guajira;Río Ranchería
15060270;LA ARENA  [15060270];Pluviométrica;Convencional;120;11.18913889;-72.72791667;La Guajira;Riohacha;Caribe;Caribe - Guajira;Río Ranchería
15060280;CERREJON CARBOCOL [15060280];Pluviométrica;Convencional;150;11;-72.66666667;La Guajira;Barrancas;Caribe;Caribe - Guajira;Río Ranchería
15060290;CERCADO EL - AUTATICO [15060290];Pluviográfica;Automática con Telemetría;400;10.91513889;-73.01152778;La Guajira;Fonseca;Caribe;Caribe - Guajira;Río Ranchería
15065020;PUEBLITO EL HACIENDA [15065020];Climática Ordinaria;Convencional;585;10.98333333;-73.11666667;La Guajira;San Juan Del Cesar;Caribe;Caribe - Guajira;Río Ranchería
15065030;ARENA LA [15065030];Climática Ordinaria;Convencional;120;11.18913889;-72.72791667;La Guajira;Riohacha;Caribe;Caribe - Guajira;Río Ranchería
15065040;LA PAULINA - AUT [15065040];Climática Principal;Automática con Telemetría - Convencional;170;10.89813889;-72.82847222;La Guajira;Fonseca;Caribe;Caribe - Guajira;Río Ranchería
15065050;CAMP INTERCOR [15065050];Climática Principal;Convencional;122;11.14286111;-72.51466667;La Guajira;Albania;Caribe;Caribe - Guajira;Río Ranchería
15065060;BUENA FE LA [15065060];Climática Ordinaria;Convencional;50;11.21666667;-72.83333333;La Guajira;Riohacha;Caribe;Caribe - Guajira;Río Ranchería
15065070;TANINOS [15065070];Climática Ordinaria;Convencional;10;11.51666667;-72.86666667;La Guajira;Riohacha;Caribe;Caribe - Guajira;Río Ranchería
15065080;RIOHACHA [15065080];Climática Ordinaria;Convencional;5;11.53333333;-72.90;La Guajira;Riohacha;Caribe;Caribe - Guajira;Río Ranchería
15065090;AEROPUERTO INTERCOR [15065090];Meteorológica Especial;Convencional;150;11.16666667;-72.50;La Guajira;Albania;Caribe;Caribe - Guajira;Río Ranchería
15065100;HACIENDA LA CRUZ [15065100];Pluviométrica;Convencional;155;11.11586111;-72.70858333;La Guajira;Hato Nuevo;Caribe;Caribe - Guajira;Río Ranchería
15065110;CAURINA [15065110];Meteorológica Especial;Convencional;380;11.01666667;-72.55;La Guajira;Barrancas;Caribe;Caribe - Guajira;Río Ranchería
15065120;LAGUNA D OXIDACION [15065120];Meteorológica Especial;Convencional;89;11.15;-72.58333333;La Guajira;Albania;Caribe;Caribe - Guajira;Río Ranchería
15065140;TAJO SUR [15065140];Climática Principal;Convencional;95;11.07688889;-72.6750;La Guajira;Barrancas;Caribe;Caribe - Guajira;Río Ranchería
15065150;SENA [15065150];Climática Ordinaria;Convencional;4;11.55;-72.90;La Guajira;Riohacha;Caribe;Caribe - Guajira;Río Ranchería
15065160;AEROPUERTO ALM. PADILLA [15065160];Radio Sonda;Convencional;4;11.52961111;-72.91766667;La Guajira;Riohacha;Caribe;Caribe - Guajira;Río Ranchería
15065170;ESPINAL EL [15065170];Meteorológica Especial;Convencional;150;11.06666667;-72.73333333;La Guajira;Hato Nuevo;Caribe;Caribe - Guajira;Río Ranchería
15065180;AEROPUERTO ALM. PADILLA - [15065180];Sinóptica Principal;Automática con Telemetría - Convencional;15;11.52844440;-72.9177222220;La Guajira;Riohacha;Caribe;Caribe - Guajira;Río Ranchería
15065190;MONGUI - AUT [15065190];Climática Principal;Automática con Telemetría;60;11.22677778;-72.82063889;La Guajira;Riohacha;Caribe;Caribe - Guajira;Río Ranchería
15065200;CARACOLI [15065200];Pluviométrica;Convencional;300;10.7523333330;-73.0031944440;La Guajira;San Juan Del Cesar;Magdalena Cauca;Cesar;Alto Cesar
15065501;LA MINA CERREJON  - AUT [15065501];Climática Principal;Automática con Telemetría - Convencional;80;11.13758333;-72.61594444;La Guajira;Albania;Caribe;Caribe - Guajira;Río Ranchería
15067010;LOMA LINDA [15067010];Limnimétrica;Convencional;148;11.013292;-72.643629;La Guajira;Barrancas;Caribe;Caribe - Guajira;Río Ranchería
15067020;EL CERCADO - AUTOMAT [15067020];Limnigráfica;Automática con Telemetría - Convencional;335;10.9075;-73.00833333;La Guajira;Fonseca;Caribe;Caribe - Guajira;Río Ranchería
15067030;EJEMPLO EL [15067030];Limnimétrica;Convencional;300;11.11666667;-72.58333333;La Guajira;Albania;Caribe;Caribe - Guajira;Río Ranchería
15067040;GUAMITO HACIENDA [15067040];Limnigráfica;Convencional;80;11.07102778;-72.66822222;La Guajira;Barrancas;Caribe;Caribe - Guajira;Río Ranchería
15067050;CUESTECITAS [15067050];Limnimétrica;Convencional;76;11.18033333;-72.55344444;La Guajira;Albania;Caribe;Caribe - Guajira;Río Ranchería
15067060;LA ESPERANZA  [15067060];Limnimétrica;Convencional;135;11.14233333;-72.50819444;La Guajira;Albania;Caribe;Caribe - Guajira;Río Ranchería
15067070;HOLANDA LA [15067070];Limnimétrica;Convencional;115;11.16666667;-72.53333333;La Guajira;Albania;Caribe;Caribe - Guajira;Río Ranchería
15067080;LOS MAGUEYES [15067080];Limnimétrica;Convencional;155;10.907983;-72.793848;La Guajira;Barrancas;Caribe;Caribe - Guajira;Río Ranchería
15067090;CAMPAMENTO [15067090];Limnigráfica;Convencional;150;11;-72.66666667;La Guajira;Barrancas;Caribe;Caribe - Guajira;Río Ranchería
15067100;MIRA LA [15067100];Limnigráfica;Convencional;280;11.11666667;-72.70;La Guajira;Hato Nuevo;Caribe;Caribe - Guajira;Río Ranchería
15067110;REMEDIOS [15067110];Limnimétrica;Convencional;150;11.09591667;-72.53480556;La Guajira;Albania;Caribe;Caribe - Guajira;Río Ranchería
15067130;POZO HONDO [15067130];Limnimétrica;Convencional;210;10.99855556;-72.81955556;La Guajira;Barrancas;Caribe;Caribe - Guajira;Río Ranchería
15067140;CHANCLETA LA [15067140];Limnimétrica;Convencional;150;11.03333333;-72.63333333;La Guajira;Barrancas;Caribe;Caribe - Guajira;Río Ranchería
15067150;PUENTE GUAJIRO [15067150];Limnimétrica;Convencional;485;10.92644444;-72.80438889;La Guajira;Barrancas;Caribe;Caribe - Guajira;Río Ranchería
15067160;ABAJO BOCATOMA [15067160];Limnimétrica;Convencional;117;11.035093;-72.711750;La Guajira;Hato Nuevo;Caribe;Caribe - Guajira;Río Ranchería
15067170;SAN FRANCISCO [15067170];Limnimétrica;Convencional;129;10.990389;-72.756215;La Guajira;Barrancas;Caribe;Caribe - Guajira;Río Ranchería
15067180;AREMASAHIN [15067180];Limnimétrica;Convencional;26;11.481798;-72.714928;La Guajira;Manaure;Caribe;Caribe - Guajira;Río Ranchería
15067190;AREMASAHIN - AUT [15067190];Limnigráfica;Automática con Telemetría;40;11.48077778;-72.71516667;La Guajira;Riohacha;Caribe;Caribe - Guajira;Río Ranchería
15067200;EL SILENCIO - AUT [15067200];Limnigráfica;Automática con Telemetría - Convencional;255;10.91708333;-72.91533333;La Guajira;Fonseca;Caribe;Caribe - Guajira;Río Ranchería
15067210;CARACOLI - AUT [15067210];Limnimétrica;Automática con Telemetría - Convencional;448;10.952896;-73.057746;La Guajira;San Juan Del Cesar;Caribe;Caribe - Guajira;Río Ranchería
15067220;PUENTE CARRETERA - RANCHERIA [15067220];Limnimétrica;Automática con Telemetría - Convencional;7;11.51097222;-72.85594444;La Guajira;Riohacha;Caribe;Caribe - Guajira;Río Ranchería
15067280;JOTOMANA [15067280];Limnimétrica;Convencional;56;11.319083;-72.554937;La Guajira;Albania;Caribe;Caribe - Guajira;Río Ranchería
15067290;PORCIOSA [15067290];Limnimétrica;Convencional;74;11.239857;-72.519534;La Guajira;Albania;Caribe;Caribe - Guajira;Río Ranchería
15070010;SANTANA URRAICH [15070010];Pluviométrica;Convencional;30;12.08658333;-72.05019444;La Guajira;Uribia;Caribe;Caribe - Guajira;Directos Caribe - Ay.Sharimahana Alta Guajira
15070020;NUEVO AMBIENTE [15070020];Pluviométrica;Convencional;39;12.34391667;-71.81919444;La Guajira;Uribia;Caribe;Caribe - Guajira;Directos Caribe - Ay.Sharimahana Alta Guajira
15070030;SAN FRANCISCO [15070030];Pluviométrica;Convencional;25;12.31666667;-71.50;La Guajira;Uribia;Caribe;Caribe - Guajira;Río Carraipia - Paraguachon, Directos al Golfo Maracaibo
15070040;PORTETE JAYARIMA [15070040];Pluviométrica;Convencional;50;12.35;-71.71666667;La Guajira;Uribia;Caribe;Caribe - Guajira;Directos Caribe - Ay.Sharimahana Alta Guajira
15070050;CARIMAYA [15070050];Pluviométrica;Convencional;50;12.20;-71.73333333;La Guajira;Uribia;Caribe;Caribe - Guajira;Directos Caribe - Ay.Sharimahana Alta Guajira
15070060;BUENOS AIRES [15070060];Pluviométrica;Convencional;40;12.27341667;-71.41588889;La Guajira;Uribia;Caribe;Caribe - Guajira;Río Carraipia - Paraguachon, Directos al Golfo Maracaibo
15070070;IRRAIPA [15070070];Pluviométrica;Convencional;65;12.12636111;-71.95227778;La Guajira;Uribia;Caribe;Caribe - Guajira;Directos Caribe - Ay.Sharimahana Alta Guajira
15070080;KAURAQUIMANA [15070080];Pluviométrica;Convencional;35;12.21836111;-71.45869444;La Guajira;Uribia;Caribe;Caribe - Guajira;Río Carraipia - Paraguachon, Directos al Golfo Maracaibo
15070090;PERPANA [15070090];Pluviométrica;Convencional;65;12.08855556;-71.81930556;La Guajira;Uribia;Caribe;Caribe - Guajira;Directos Caribe - Ay.Sharimahana Alta Guajira
15070100;CARRIZAL [15070100];Pluviométrica;Convencional;5;12;-72.18;La Guajira;Uribia;Caribe;Caribe - Guajira;Directos Caribe - Ay.Sharimahana Alta Guajira
15070110;JOJONCITO [15070110];Pluviométrica;Convencional;120;11.81144444;-71.96530556;La Guajira;Uribia;Caribe;Caribe - Guajira;Río Carraipia - Paraguachon, Directos al Golfo Maracaibo
15070120;AHUYAMA [15070120];Pluviométrica;Convencional;5;11.86608056;-72.27882778;La Guajira;Uribia;Caribe;Caribe - Guajira;Directos Caribe - Ay.Sharimahana Alta Guajira
15070130;EL PAJARO [15070130];Pluviométrica;Convencional;2;11.70947222;-72.67641667;La Guajira;Manaure;Caribe;Caribe - Guajira;Directos Caribe - Ay.Sharimahana Alta Guajira
15070140;MAYAPO [15070140];Pluviométrica;Convencional;3;11.65027778;-72.786750;La Guajira;Manaure;Caribe;Caribe - Guajira;Directos Caribe - Ay.Sharimahana Alta Guajira
15070150;CARACAS HACIENDA [15070150];Pluviométrica;Convencional;80;11.48213889;-72.55897222;La Guajira;Manaure;Caribe;Caribe - Guajira;Directos Caribe - Ay.Sharimahana Alta Guajira
15070160;ESCUELA CEURA [15070160];Pluviométrica;Convencional;85;11.437750;-72.46997222;La Guajira;Maicao;Caribe;Caribe - Guajira;Directos Caribe - Ay.Sharimahana Alta Guajira
15070170;ITACA [15070170];Pluviométrica;Convencional;85;11.43333333;-72.55;La Guajira;Maicao;Caribe;Caribe - Guajira;Directos Caribe - Ay.Sharimahana Alta Guajira
15070190;CAIMITO [15070190];Pluviométrica;Convencional;100;12.26913889;-71.51277778;La Guajira;Uribia;Caribe;Caribe - Guajira;Río Carraipia - Paraguachon, Directos al Golfo Maracaibo
15070200;TUMAMANA [15070200];Pluviométrica;Convencional;100;12.3295;-71.75188889;La Guajira;Uribia;Caribe;Caribe - Guajira;Directos Caribe - Ay.Sharimahana Alta Guajira
15070230;GUAYABAL [15070230];Pluviométrica;Convencional;85;11.44011111;-72.55377778;La Guajira;Maicao;Caribe;Caribe - Guajira;Directos Caribe - Ay.Sharimahana Alta Guajira
15070240;OROCHON [15070240];Pluviométrica;Convencional;100;11.81163889;-72.19061111;La Guajira;Uribia;Caribe;Caribe - Guajira;Directos Caribe - Ay.Sharimahana Alta Guajira
15070250;RIOHACHA [15070250];Pluviométrica;Convencional;5;11.53333333;-72.90;La Guajira;Riohacha;Caribe;Caribe - Guajira;Río Ranchería
15075010;BAHIA HONDA [15075010];Climática Ordinaria;Convencional;10;12.31388611;-71.79644722;La Guajira;Uribia;Caribe;Caribe - Guajira;Directos Caribe - Ay.Sharimahana Alta Guajira
15075020;CABO DE LA VELA [15075020];Climática Ordinaria;Convencional;5;12.21666667;-72.18333333;La Guajira;Uribia;Caribe;Caribe - Guajira;Directos Caribe - Ay.Sharimahana Alta Guajira
15075030;MANAURE [15075030];Climática Principal;Convencional;1;11.78105556;-72.4635;La Guajira;Manaure;Caribe;Caribe - Guajira;Directos Caribe - Ay.Sharimahana Alta Guajira
15075040;URIBIA [15075040];Climática Ordinaria;Convencional;18;11.71666667;-72.26666667;La Guajira;Uribia;Caribe;Caribe - Guajira;Directos Caribe - Ay.Sharimahana Alta Guajira
15075050;PIZARRA LA [15075050];Climática Ordinaria;Convencional;150;10.76666667;-73;La Guajira;San Juan Del Cesar;Magdalena Cauca;Cesar;Alto Cesar
15075150;PAICI - AUT [15075150];Agrometeorológica;Automática con Telemetría;45;11.59494444;-72.325750;La Guajira;Uribia;Caribe;Caribe - Guajira;Directos Caribe - Ay.Sharimahana Alta Guajira
15075501;AEROPUERTO PUERTO BOLIVAR  - AUT [15075501];Climática Principal;Automática con Telemetría - Convencional;10;12.22430556;-71.98288889;La Guajira;Uribia;Caribe;Caribe - Guajira;Directos Caribe - Ay.Sharimahana Alta Guajira
15079010;PUERTO BOLIVAR - AUT [15079010];Meteorologica Marina;Automática con Telemetría;0;12.22427778;-71.96766667;La Guajira;Uribia;Caribe;Caribe - Guajira;Directos Caribe - Ay.Sharimahana Alta Guajira
15080010;PUERTO ESTRELLA [15080010];Pluviométrica;Convencional;5;12.34530556;-71.31197222;La Guajira;Uribia;Caribe;Caribe - Guajira;Río Carraipia - Paraguachon, Directos al Golfo Maracaibo
15080020;SIPANAO [15080020];Pluviométrica;Convencional;100;12.11936111;-71.26869444;La Guajira;Uribia;Caribe;Caribe - Guajira;Río Carraipia - Paraguachon, Directos al Golfo Maracaibo
15080030;TAPARAJIN [15080030];Pluviométrica;Convencional;35;12.06666667;-71.56666667;La Guajira;Uribia;Caribe;Caribe - Guajira;Río Carraipia - Paraguachon, Directos al Golfo Maracaibo
15080040;SIAPANA [15080040];Pluviométrica;Convencional;145;12.06947222;-71.3185;La Guajira;Uribia;Caribe;Caribe - Guajira;Río Carraipia - Paraguachon, Directos al Golfo Maracaibo
15080050;HUIMPECHT [15080050];Pluviométrica;Convencional;10;11.63333333;-72;La Guajira;Maicao;Caribe;Caribe - Guajira;Río Carraipia - Paraguachon, Directos al Golfo Maracaibo
15080070;SILLAMANA [15080070];Pluviométrica;Convencional;115;11.89941667;-71.51588889;La Guajira;Uribia;Caribe;Caribe - Guajira;Río Carraipia - Paraguachon, Directos al Golfo Maracaibo
15080080;JASAY [15080080];Pluviométrica;Convencional;35;11.79041667;-71.96472222;La Guajira;Uribia;Caribe;Caribe - Guajira;Río Carraipia - Paraguachon, Directos al Golfo Maracaibo
15080090;PUERTO LOPEZ [15080090];Pluviométrica;Convencional;2;11.93427778;-71.2825;La Guajira;Uribia;Caribe;Caribe - Guajira;Río Carraipia - Paraguachon, Directos al Golfo Maracaibo
15080100;PAN GRANDE [15080100];Pluviométrica;Convencional;250;11.10;-72.45;La Guajira;Maicao;Caribe;Caribe - Guajira;Río Carraipia - Paraguachon, Directos al Golfo Maracaibo
15080140;CARRAIPIA [15080140];Pluviométrica;Convencional;50;11.26666667;-72.36666667;La Guajira;Maicao;Caribe;Caribe - Guajira;Río Carraipia - Paraguachon, Directos al Golfo Maracaibo
15080150;MAICAO [15080150];Pluviométrica;Convencional;50;11.38333333;-72.25;La Guajira;Maicao;Caribe;Caribe - Guajira;Río Carraipia - Paraguachon, Directos al Golfo Maracaibo
15085010;AEROPUERTO MAICAO [15085010];Climática Principal;Convencional;53;11.40;-72.25;La Guajira;Maicao;Caribe;Caribe - Guajira;Río Carraipia - Paraguachon, Directos al Golfo Maracaibo
15085020;NAZARETH [15085020];Pluviométrica;Convencional;85;12.17888889;-71.28388889;La Guajira;Uribia;Caribe;Caribe - Guajira;Río Carraipia - Paraguachon, Directos al Golfo Maracaibo
15085030;ESCUELA AGRICOLA CARRAIPIA  - AUT [15085030];Climática Ordinaria;Automática con Telemetría - Convencional;118;11.216750;-72.35994444;La Guajira;Maicao;Caribe;Caribe - Guajira;Río Carraipia - Paraguachon, Directos al Golfo Maracaibo
15085040;RANCHO GRANDE [15085040];Climática Ordinaria;Convencional;50;11.68605556;-71.83305556;La Guajira;Uribia;Caribe;Caribe - Guajira;Río Carraipia - Paraguachon, Directos al Golfo Maracaibo
15085050;TOROMANA - AUT [15085050];Climática Principal;Automática con Telemetría;144;12.08352778;-71.21094444;La Guajira;Uribia;Caribe;Caribe - Guajira;Río Carraipia - Paraguachon, Directos al Golfo Maracaibo
15087010;CARRAIPIA [15087010];Limnimétrica;Convencional;110;11.23411111;-72.35880556;La Guajira;Maicao;Caribe;Caribe - Guajira;Río Carraipia - Paraguachon, Directos al Golfo Maracaibo
15087020;SIPANAO [15087020];Limnimétrica;Convencional;90;12.13333333;-71.25;La Guajira;Uribia;Caribe;Caribe - Guajira;Río Carraipia - Paraguachon, Directos al Golfo Maracaibo
15087030;SHISHIMANA [15087030];Limnimétrica;Convencional;105;12.16666667;-71.30;La Guajira;Uribia;Caribe;Caribe - Guajira;Río Carraipia - Paraguachon, Directos al Golfo Maracaibo
15087040;WATCASAINRU [15087040];Limnimétrica;Convencional;90;12.16666667;-71.28333333;La Guajira;Uribia;Caribe;Caribe - Guajira;Río Carraipia - Paraguachon, Directos al Golfo Maracaibo
15087050;NAZARETH [15087050];Limnimétrica;Convencional;70;12.18333333;-71.30;La Guajira;Uribia;Caribe;Caribe - Guajira;Río Carraipia - Paraguachon, Directos al Golfo Maracaibo
15087060;ALJIBE SANTA CRUZ [15087060];Limnimétrica;Convencional;60;12.21666667;-71.33333333;La Guajira;Uribia;Caribe;Caribe - Guajira;Río Carraipia - Paraguachon, Directos al Golfo Maracaibo
15087070;ANUHAPA [15087070];Limnimétrica;Convencional;70;12.20;-71.31666667;La Guajira;Uribia;Caribe;Caribe - Guajira;Río Carraipia - Paraguachon, Directos al Golfo Maracaibo
15087080;PARAGUACHON [15087080];Limnigráfica;Convencional;35;11.36013889;-72.13244444;La Guajira;Maicao;Caribe;Caribe - Guajira;Río Carraipia - Paraguachon, Directos al Golfo Maracaibo
15087090;CHINGOLITA LA [15087090];Limnimétrica;Convencional;500;11.29805556;-72.19138889;La Guajira;Maicao;Caribe;Caribe - Guajira;Río Carraipia - Paraguachon, Directos al Golfo Maracaibo
16010010;VILLA DEL ROSARIO [16010010];Pluviométrica;Convencional;522;7.8177777780;-72.47777778;Norte De Santander;Villa Del Rosario;Caribe;Catatumbo;Río Pamplonita
16010020;DONJUANA LA 2 [16010020];Pluviométrica;Convencional;770;7.6972222220;-72.60138889;Norte De Santander;Bochalema;Caribe;Catatumbo;Río Pamplonita
16010040;SANTA RITA [16010040];Pluviométrica;Convencional;72;8.1855555560;-72.36833333;Norte De Santander;Cúcuta;Caribe;Catatumbo;Río Pamplonita
16010050;ALTO VIENTO [16010050];Pluviométrica;Convencional;165;8.1666666670;-72.48333333;Norte De Santander;Cúcuta;Caribe;Catatumbo;Río Zulia
16010060;JARRA LA [16010060];Pluviométrica;Convencional;87;8.2019444440;-72.43222222;Norte De Santander;Cúcuta;Caribe;Catatumbo;Río Pamplonita
16010070;PRIMAVERA LA [16010070];Pluviográfica;Convencional;70;8.2666666670;-72.45;Norte De Santander;Cúcuta;Caribe;Catatumbo;Río Zulia
16010080;DONJUANA LA 1 [16010080];Pluviométrica;Convencional;770;7.70;-72.60;Norte De Santander;Bochalema;Caribe;Catatumbo;Río Pamplonita
16010090;OROCUE [16010090];Pluviométrica;Convencional;2500;7.4333333330;-72.45;Norte De Santander;Herrán;Caribe;Catatumbo;Río Pamplonita
16010100;RICAURTE [16010100];Pluviométrica;Convencional;1492;8.0263611110;-72.35397222;Norte De Santander;Cúcuta;Caribe;Catatumbo;Río Pamplonita
16010110;MANZANARES [16010110];Pluviométrica;Convencional;1350;7.6127777780;-72.59083333;Norte De Santander;Chinácota;Caribe;Catatumbo;Río Pamplonita
16010150;LIMONCITO 1 [16010150];Pluviométrica;Convencional;269;8;-72.41666667;Norte De Santander;Cúcuta;Caribe;Catatumbo;Río Pamplonita
16010170;ESCOBAL EL [16010170];Pluviométrica;Convencional;250;7.85;-72.53333333;Norte De Santander;Cúcuta;Caribe;Catatumbo;Río Zulia
16010190;ROSARIO EL [16010190];Pluviométrica;Convencional;430;7.85;-72.50;Norte De Santander;Villa Del Rosario;Caribe;Catatumbo;Río Pamplonita
16010290;ESPERANZA LA [16010290];Pluviométrica;Convencional;1760;7.5666666670;-72.53333333;Norte De Santander;Ragonvalia;Caribe;Catatumbo;Río Pamplonita
16010330;SAN FAUSTINO [16010330];Pluviográfica;Convencional;200;8.0666666670;-72.41666667;Norte De Santander;Cúcuta;Caribe;Catatumbo;Río Pamplonita
16010340;TASAJERO [16010340];Pluviométrica;Convencional;953;7.9930277780;-72.46172222;Norte De Santander;Cúcuta;Caribe;Catatumbo;Río Pamplonita
16015010;AEROPUERTO CAMILO DAZA [16015010];Sinóptica Principal;Convencional;250;7.9302777780;-72.50916667;Norte De Santander;Cúcuta;Caribe;Catatumbo;Río Pamplonita
16015020;ISER PAMPLONA [16015020];Agrometeorológica;Convencional;2340;7.3731111110;-72.6450;Norte De Santander;Pamplona;Caribe;Catatumbo;Río Pamplonita
16015030;ESPERANZA LA [16015030];Climática Ordinaria;Convencional;1760;7.5697222220;-72.53388889;Norte De Santander;Ragonvalia;Caribe;Catatumbo;Río Pamplonita
16015040;SANTA ISABEL [16015040];Climática Ordinaria;Convencional;90;8.2333333330;-72.43333333;Norte De Santander;Cúcuta;Caribe;Catatumbo;Río Pamplonita
16015080;DAVE EL [16015080];Climática Ordinaria;Convencional;290;8.3166666670;-72.41666667;Norte De Santander;Puerto Santander;Caribe;Catatumbo;Río Pamplonita
16015090;TAMA PARQUE NAL [16015090];Climática Principal;Convencional;2500;7.4244444440;-72.44211111;Norte De Santander;Herrán;Caribe;Catatumbo;Río Pamplonita
16015100;RAGONVALIA [16015100];Climática Principal;Convencional;1550;7.5766666670;-72.48388889;Norte De Santander;Ragonvalia;Caribe;Catatumbo;Río Pamplonita
16015110;UNIVERSIDAD FRANCISO DE PAULA SANTANDER - AUT [16015110];Climática Principal;Automática con Telemetría - Convencional;311;7.8987777780;-72.48716667;Norte De Santander;Cúcuta;Caribe;Catatumbo;Río Pamplonita
16015120;UNIVERSIDAD DE PAMPLONA  - AUT [16015120];Agrometeorológica;Automática con Telemetría;2362;7.3609444440;-72.66605556;Norte De Santander;Pamplona;Caribe;Catatumbo;Río Pamplonita
16015130;ALCALDIA DE HERRAN  - AUT [16015130];Climática Principal;Automática con Telemetría;240;7.5067222220;-72.48536111;Norte De Santander;Herrán;Caribe;Catatumbo;Río Pamplonita
16015140;FCA.LA PALMITA [16015140];Climática Ordinaria;Convencional;1107;7.5173611110;-72.64408333;Norte De Santander;Pamplonita;Caribe;Catatumbo;Río Pamplonita
16015501;AEROPUERTO CAMILO DAZA - AUT [16015501];Sinóptica Principal;Automática con Telemetría - Convencional;306;7.930280;-72.509170;Norte De Santander;Cúcuta;Caribe;Catatumbo;Río Pamplonita
16017010;AGUAS CLARAS  - AUT [16017010];Limnigráfica;Automática con Telemetría - Convencional;70;8.2336111110;-72.41722222;Norte De Santander;Cúcuta;Caribe;Catatumbo;Río Pamplonita
16017020;LA DONJUANA - AUT [16017020];Limnigráfica;Automática con Telemetría - Convencional;730;7.6879722220;-72.60547222;Norte De Santander;Chinácota;Caribe;Catatumbo;Río Pamplonita
16017030;LA UCHEMA - AUT [16017030];Limnigráfica;Automática con Telemetría;520;7.6942222220;-72.4740;Norte De Santander;Villa Del Rosario;Caribe;Catatumbo;Río Pamplonita
16017040;PASO DE LOS RIOS [16017040];Limnigráfica;Convencional;175;8.0333333330;-72.41666667;Norte De Santander;Cúcuta;Caribe;Catatumbo;Río Pamplonita
16017070;OROCUE TAMA [16017070];Limnimétrica;Convencional;2370;7.4240833330;-72.44219444;Norte De Santander;Herrán;Caribe;Catatumbo;Río Pamplonita
16020010;GRAMALOTE [16020010];Pluviométrica;Convencional;120;7.8919444440;-72.79944444;Norte De Santander;Gramalote;Caribe;Catatumbo;Río Zulia
16020030;SANTIAGO CAIMITO [16020030];Pluviométrica;Convencional;411;7.8641666670;-72.71611111;Norte De Santander;Santiago;Caribe;Catatumbo;Río Zulia
16020050;ARBOLEDAS [16020050];Pluviométrica;Convencional;925;7.6444444440;-72.79972222;Norte De Santander;Arboledas;Caribe;Catatumbo;Río Zulia
16020060;BAGUECHE [16020060];Pluviométrica;Convencional;1750;7.5836111110;-72.9275;Norte De Santander;Arboledas;Caribe;Catatumbo;Río Zulia
16020080;CUCUTILLA [16020080];Pluviométrica;Convencional;1280;7.5341666670;-72.77277778;Norte De Santander;Cucutilla;Caribe;Catatumbo;Río Zulia
16020090;MUTISCUA-LA CALDER [16020090];Pluviométrica;Convencional;2650;7.30;-72.75;Norte De Santander;Mutiscua;Caribe;Catatumbo;Río Zulia
16020110;CALDERA LA [16020110];Pluviométrica;Convencional;2875;7.3169444440;-72.71833333;Norte De Santander;Mutiscua;Caribe;Catatumbo;Río Zulia
16020120;BALCONES LOS [16020120];Pluviométrica;Convencional;200;8.1333333330;-72.45;Norte De Santander;Cúcuta;Caribe;Catatumbo;Río Pamplonita
16020130;BARRANCAS [16020130];Pluviométrica;Convencional;74;8.2455;-72.52630556;Norte De Santander;Cúcuta;Caribe;Catatumbo;Río Zulia
16020140;BOCATOMA RIO ZULIA [16020140];Pluviométrica;Convencional;150;8.0773333330;-72.58388889;Norte De Santander;Cúcuta;Caribe;Catatumbo;Río Zulia
16020150;CASA BLANCA [16020150];Pluviométrica;Convencional;70;8.1833333330;-72.55;Norte De Santander;El Zulia;Caribe;Catatumbo;Río Zulia
16020170;CNO CUEVAS CHEVRON [16020170];Pluviométrica;Convencional;100;8.20;-72.48333333;Norte De Santander;Cúcuta;Caribe;Catatumbo;Río Zulia
16020180;CERRO PELAO [16020180];Pluviométrica;Convencional;300;8.0119444440;-72.50027778;Norte De Santander;Cúcuta;Caribe;Catatumbo;Río Zulia
16020190;CORNEJO [16020190];Pluviométrica;Convencional;250;7.9013888890;-72.63416667;Norte De Santander;San Cayetano;Caribe;Catatumbo;Río Zulia
16020200;GUADUAS [16020200];Pluviométrica;Convencional;275;8.0833333330;-72.53333333;Norte De Santander;Cúcuta;Caribe;Catatumbo;Río Zulia
16020210;GUAYABAL [16020210];Pluviométrica;Convencional;250;8;-72.50;Norte De Santander;Cúcuta;Caribe;Catatumbo;Río Zulia
16020230;COLORADA LA [16020230];Pluviométrica;Convencional;160;7.9666666670;-72.61666667;Norte De Santander;El Zulia;Caribe;Catatumbo;Río Zulia
16020240;PALMA LA [16020240];Pluviométrica;Convencional;78;8.20;-72.55;Norte De Santander;Cúcuta;Caribe;Catatumbo;Río Zulia
16020250;VACAS LAS [16020250];Pluviométrica;Convencional;70;8.2191666670;-72.52455556;Norte De Santander;Cúcuta;Caribe;Catatumbo;Río Zulia
16020260;CAMBULOS LOS [16020260];Pluviométrica;Convencional;70;8.2833333330;-72.46666667;Norte De Santander;Cúcuta;Caribe;Catatumbo;Río Zulia
16020270;SAN JOAQUIN [16020270];Pluviométrica;Convencional;110;8.20;-72.50;Norte De Santander;Cúcuta;Caribe;Catatumbo;Río Zulia
16020280;URIMACO [16020280];Pluviométrica;Convencional;221;7.9008333330;-72.5925;Norte De Santander;San Cayetano;Caribe;Catatumbo;Río Zulia
16020290;PLOMO EL [16020290];Pluviométrica;Convencional;120;8.1666666670;-72.51666667;Norte De Santander;Cúcuta;Caribe;Catatumbo;Río Zulia
16020300;VALE  MONTEVIDE [16020300];Pluviométrica;Convencional;200;7.95;-72.60;Norte De Santander;Cúcuta;Caribe;Catatumbo;Río Zulia
16020310;LIMONCITO 2 [16020310];Pluviométrica;Convencional;120;8.0666666670;-72.53333333;Norte De Santander;Cúcuta;Caribe;Catatumbo;Río Zulia
16020320;AGUABLANCA [16020320];Pluviométrica;Convencional;250;8.0361111110;-72.48361111;Norte De Santander;Cúcuta;Caribe;Catatumbo;Río Zulia
16020340;PLANADAS [16020340];Pluviométrica;Convencional;100;8.2169444440;-72.43611111;Norte De Santander;Cúcuta;Caribe;Catatumbo;Río Pamplonita
16020350;PUERTO LEON [16020350];Pluviométrica;Convencional;60;8.35;-72.45;Norte De Santander;Cúcuta;Caribe;Catatumbo;Río Zulia
16020360;PUERTO RICO [16020360];Pluviométrica;Convencional;125;8.10;-72.46666667;Norte De Santander;Cúcuta;Caribe;Catatumbo;Río Zulia
16020370;PUERTO SANTANDER [16020370];Pluviométrica;Convencional;50;8.3594444440;-72.41;Norte De Santander;Puerto Santander;Caribe;Catatumbo;Río Zulia
16020390;SALAZAR [16020390];Pluviométrica;Convencional;870;7.7833333330;-72.80;Norte De Santander;Salazar;Caribe;Catatumbo;Río Zulia
16020510;LIMONCITO [16020510];Pluviográfica;Convencional;120;8.10;-72.56666667;Norte De Santander;Cúcuta;Caribe;Catatumbo;Río Zulia
16020520;TERMOTASAJERO - AUT [16020520];Pluviográfica;Automática con Telemetría;255;7.8333333330;-72.63333333;Norte De Santander;Durania;Caribe;Catatumbo;Río Zulia
16025010;CARMEN DE TONCHALA [16025010];Climática Principal;Convencional;285;7.8488888890;-72.56611111;Norte De Santander;Cúcuta;Caribe;Catatumbo;Río Zulia
16025020;RISARALDA [16025020];Climática Ordinaria;Convencional;90;8.2333333330;-72.53333333;Norte De Santander;El Zulia;Caribe;Catatumbo;Río Zulia
16025030;SALAZAR [16025030];Climática Principal;Convencional;860;7.7745833330;-72.83055556;Norte De Santander;Salazar;Caribe;Catatumbo;Río Zulia
16025040;CINERA-VILLA OLGA AUT [16025040];Climática Principal;Automática con Telemetría - Convencional;96;8.167280;-72.478780;Norte De Santander;Cúcuta;Caribe;Catatumbo;Río Zulia
16025050;LIMONCITO [16025050];Climática Ordinaria;Convencional;120;8.10;-72.56666667;Norte De Santander;Cúcuta;Caribe;Catatumbo;Río Zulia
16025070;CEEZ ICA [16025070];Agrometeorológica;Convencional;100;8.1833333330;-72.51666667;Norte De Santander;Cúcuta;Caribe;Catatumbo;Río Zulia
16025080;H.J.C GRANJA [16025080];Climática Ordinaria;Convencional;1380;7.55;-72.76666667;Norte De Santander;Cucutilla;Caribe;Catatumbo;Río Zulia
16027010;POMARROSOS LOS [16027010];Limnigráfica;Convencional;850;7.7783333330;-72.82083333;Norte De Santander;Salazar;Caribe;Catatumbo;Río Zulia
16027020;IGUANA LA [16027020];Limnimétrica;Convencional;75;8.2166666670;-72.55;Norte De Santander;Cúcuta;Caribe;Catatumbo;Río Zulia
16027030;K  0+200 [16027030];Limnimétrica;Convencional;116;8.0666666670;-72.58333333;Norte De Santander;Cúcuta;Caribe;Catatumbo;Río Zulia
16027040;K  5+700 [16027040];Limnimétrica;Convencional;114;8.0833333330;-72.55;Norte De Santander;Cúcuta;Caribe;Catatumbo;Río Zulia
16027050;K  8+000 [16027050];Limnimétrica;Convencional;108;8.10;-72.53333333;Norte De Santander;Cúcuta;Caribe;Catatumbo;Río Zulia
16027060;PUERTO LEON - AUT [16027060];Limnigráfica;Automática con Telemetría - Convencional;47;8.3502777780;-72.43472222;Norte De Santander;Puerto Santander;Caribe;Catatumbo;Río Zulia
16027070;PAJARITO [16027070];Limnigráfica;Convencional;150;8.0166666670;-72.60;Norte De Santander;El Zulia;Caribe;Catatumbo;Río Zulia
16027080;FLORENZA ALTO [16027080];Limnimétrica;Convencional;100;8.15;-72.48333333;Norte De Santander;Cúcuta;Caribe;Catatumbo;Río Zulia
16027090;MESA LA [16027090];Limnimétrica;Convencional;300;7.9333333330;-72.65;Norte De Santander;El Zulia;Caribe;Catatumbo;Río Zulia
16027100;CORNEJO [16027100];Limnigráfica;Convencional;270;7.9013888890;-72.63388889;Norte De Santander;San Cayetano;Caribe;Catatumbo;Río Zulia
16027110;TAPONERA LA [16027110];Limnimétrica;Convencional;300;7.9166666670;-72.63333333;Norte De Santander;San Cayetano;Caribe;Catatumbo;Río Zulia
16027120;SAN JAVIER/PUENTE ZULIA - AUT [16027120];Limnigráfica;Automática con Telemetría - Convencional;270;7.8338888890;-72.65027778;Norte De Santander;Durania;Caribe;Catatumbo;Río Zulia
16027130;ZULIA PUENTE OSPINA [16027130];Limnimétrica;Convencional;174;7.9333333330;-72.56666667;Norte De Santander;Cúcuta;Caribe;Catatumbo;Río Zulia
16027140;ZUMALLERO ALTO [16027140];Limnimétrica;Convencional;116;8.0666666670;-72.58333333;Norte De Santander;Cúcuta;Caribe;Catatumbo;Río Zulia
16027150;ZUMALLERO BAJO [16027150];Limnimétrica;Convencional;114;8.0833333330;-72.58333333;Norte De Santander;Cúcuta;Caribe;Catatumbo;Río Zulia
16027160;ASTILLEROS [16027160];Limnimétrica;Convencional;103;8.10;-72.58333333;Norte De Santander;Cúcuta;Caribe;Catatumbo;Río Zulia
16027170;Z-6 [16027170];Limnimétrica;Convencional;108;8.10;-72.53333333;Norte De Santander;Cúcuta;Caribe;Catatumbo;Río Zulia
16027180;LONDRES ALTO [16027180];Limnimétrica;Convencional;102;8.15;-72.48333333;Norte De Santander;Cúcuta;Caribe;Catatumbo;Río Zulia
16027190;LONDRES BAJO [16027190];Limnimétrica;Convencional;70;8.2166666670;-72.51666667;Norte De Santander;Cúcuta;Caribe;Catatumbo;Río Zulia
16027200;BUENA ESPERANZA [16027200];Limnimétrica;Convencional;95;8.15;-72.48333333;Norte De Santander;Cúcuta;Caribe;Catatumbo;Río Zulia
16027210;FLORENZA INTERMEDI [16027210];Limnimétrica;Convencional;95;8.1666666670;-72.46666667;Norte De Santander;Cúcuta;Caribe;Catatumbo;Río Zulia
16027220;FLORESTA ALTO [16027220];Limnimétrica;Convencional;96;8.1666666670;-72.46666667;Norte De Santander;Cúcuta;Caribe;Catatumbo;Río Zulia
16027230;Z-1 [16027230];Limnimétrica;Convencional;115;8.0833333330;-72.56666667;Norte De Santander;Cúcuta;Caribe;Catatumbo;Río Zulia
16027240;Z-3 [16027240];Limnimétrica;Convencional;114;8.0833333330;-72.55;Norte De Santander;Cúcuta;Caribe;Catatumbo;Río Zulia
16027250;Z-4 [16027250];Limnimétrica;Convencional;114;8.0833333330;-72.55;Norte De Santander;Cúcuta;Caribe;Catatumbo;Río Zulia
16027260;Z-5 [16027260];Limnimétrica;Convencional;113;8.10;-72.53333333;Norte De Santander;Cúcuta;Caribe;Catatumbo;Río Zulia
16027280;ASTILLEROS - AUT [16027280];Limnigráfica;Automática con Telemetría - Convencional;140;8.1052777780;-72.58138889;Norte De Santander;Cúcuta;Caribe;Catatumbo;Río Zulia
16027300;PUENTE CAPIRA - AUT [16027300];Limnigráfica;Automática con Telemetría - Convencional;1320;7.5371944440;-72.77113889;Norte De Santander;Cucutilla;Caribe;Catatumbo;Río Zulia
16027310;TERMOTASAJERO - AUT [16027310];Limnigráfica;Automática con Telemetría;255;7.8333333330;-72.63333333;Norte De Santander;Durania;Caribe;Catatumbo;Río Zulia
16030030;CAMPO TRES [16030030];Pluviométrica;Convencional;40;8.5149444440;-72.69744444;Norte De Santander;Tibú;Caribe;Catatumbo;Río Nuevo Presidente - Tres Bocas (Sardinata, Tibu)
16030040;PRADERA LA [16030040];Pluviométrica;Convencional;210;8.3833333330;-72.93333333;Norte De Santander;Sardinata;Caribe;Catatumbo;Río Nuevo Presidente - Tres Bocas (Sardinata, Tibu)
16030050;MERCEDES LAS [16030050];Pluviométrica;Convencional;273;8.2976111110;-72.88361111;Norte De Santander;Sardinata;Caribe;Catatumbo;Río Nuevo Presidente - Tres Bocas (Sardinata, Tibu)
16030060;SAN GIL [16030060];Pluviométrica;Convencional;480;8.2244444440;-72.85805556;Norte De Santander;Sardinata;Caribe;Catatumbo;Río Nuevo Presidente - Tres Bocas (Sardinata, Tibu)
16030080;LOURDES [16030080];Pluviométrica;Convencional;1200;7.9502777780;-72.8325;Norte De Santander;Lourdes;Caribe;Catatumbo;Río Nuevo Presidente - Tres Bocas (Sardinata, Tibu)
16030090;VILLA CARO [16030090];Pluviométrica;Convencional;1490;7.9147222220;-72.98;Norte De Santander;Villa Caro;Caribe;Catatumbo;Río Nuevo Presidente - Tres Bocas (Sardinata, Tibu)
16030100;SAN JUAN [16030100];Pluviométrica;Convencional;2240;8.0252777780;-73.01861111;Norte De Santander;Villa Caro;Caribe;Catatumbo;Río Nuevo Presidente - Tres Bocas (Sardinata, Tibu)
16030120;SARDINATA [16030120];Pluviométrica;Convencional;320;8.10;-72.80;Norte De Santander;Sardinata;Caribe;Catatumbo;Río Nuevo Presidente - Tres Bocas (Sardinata, Tibu)
16030130;JORDAN EL [16030130];Pluviométrica;Convencional;275;8.3666666670;-72.90;Norte De Santander;Sardinata;Caribe;Catatumbo;Río Nuevo Presidente - Tres Bocas (Sardinata, Tibu)
16030140;DIVISIONES [16030140];Pluviométrica;Convencional;100;8.3427777780;-72.69361111;Norte De Santander;Sardinata;Caribe;Catatumbo;Río Nuevo Presidente - Tres Bocas (Sardinata, Tibu)
16030150;LIBERTAD LA [16030150];Pluviométrica;Convencional;90;8.3277777780;-72.64638889;Norte De Santander;Tibú;Caribe;Catatumbo;Río Nuevo Presidente - Tres Bocas (Sardinata, Tibu)
16035010;TIBU [16035010];Pluviométrica;Automática con Telemetría - Convencional;50;8.6383333330;-72.72666667;Norte De Santander;Tibú;Caribe;Catatumbo;Río Nuevo Presidente - Tres Bocas (Sardinata, Tibu)
16035020;PETROLEA [16035020];Climática Ordinaria;Convencional;62;8.4686111110;-72.57944444;Norte De Santander;Tibú;Caribe;Catatumbo;Río Nuevo Presidente - Tres Bocas (Sardinata, Tibu)
16035030;SARDINATA [16035030];Pluviométrica;Automática con Telemetría - Convencional;320;8.0766666670;-72.80305556;Norte De Santander;Sardinata;Caribe;Catatumbo;Río Nuevo Presidente - Tres Bocas (Sardinata, Tibu)
16035040;ESTANCIA LA [16035040];Climática Ordinaria;Convencional;140;8.3333333330;-72.65;Norte De Santander;Tibú;Caribe;Catatumbo;Río Nuevo Presidente - Tres Bocas (Sardinata, Tibu)
16035050;VALERA LA [16035050];Climática Ordinaria;Convencional;140;8.3666666670;-72.58333333;Norte De Santander;Tibú;Caribe;Catatumbo;Río Nuevo Presidente - Tres Bocas (Sardinata, Tibu)
16037010;CAMPO TRES [16037010];Limnigráfica;Convencional;50;8.5175;-72.69805556;Norte De Santander;Tibú;Caribe;Catatumbo;Río Nuevo Presidente - Tres Bocas (Sardinata, Tibu)
16037020;CAMPO DOS [16037020];Limnigráfica;Convencional;50;8.4880555560;-72.63111111;Norte De Santander;Tibú;Caribe;Catatumbo;Río Nuevo Presidente - Tres Bocas (Sardinata, Tibu)
16037030;PUENTE SARDINATA - AUT [16037030];Limnigráfica;Automática con Telemetría - Convencional;245;8.1036111110;-72.79472222;Norte De Santander;Sardinata;Caribe;Catatumbo;Río Nuevo Presidente - Tres Bocas (Sardinata, Tibu)
16037040;CAMPO SEIS [16037040];Limnimétrica;Convencional;70;8.6011111110;-72.80861111;Norte De Santander;Tibú;Caribe;Catatumbo;Río Nuevo Presidente - Tres Bocas (Sardinata, Tibu)
16037050;PUENTE SAN MIGUEL [16037050];Limnigráfica;Convencional;75;8.3683055560;-72.58611111;Norte De Santander;Cúcuta;Caribe;Catatumbo;Río Nuevo Presidente - Tres Bocas (Sardinata, Tibu)
16037060;TAMBORES [16037060];Limnigráfica;Convencional;80;8.3666666670;-72.68333333;Norte De Santander;Tibú;Caribe;Catatumbo;Río Nuevo Presidente - Tres Bocas (Sardinata, Tibu)
16040010;ALTO EL VENADO [16040010];Pluviométrica;Convencional;1920;8.0888888890;-73.07083333;Norte De Santander;Ábrego;Caribe;Catatumbo;Río Tarra
16040020;MESA RICA [16040020];Pluviométrica;Convencional;1900;8.2833333330;-73.10;Norte De Santander;Hacarí;Caribe;Catatumbo;Río Tarra
16040030;ASPASICA [16040030];Pluviométrica;Convencional;1620;8.2833333330;-73.20;Norte De Santander;La Playa;Caribe;Catatumbo;Río Algodonal (Alto Catatumbo)
16040040;CINCHO EL [16040040];Pluviométrica;Convencional;1150;8.25;-73.05;Norte De Santander;Ábrego;Caribe;Catatumbo;Río Tarra
16040050;LA MARIA - AUT [16040050];Climática Principal;Automática con Telemetría - Convencional;1927;7.934850;-73.213580;Norte De Santander;Ábrego;Caribe;Catatumbo;Río Algodonal (Alto Catatumbo)
16045020;EL TARRA [16045020];Climática Ordinaria;Convencional;180;8.5886111110;-73.0811111110;Norte De Santander;El Tarra;Caribe;Catatumbo;Río Tarra
16047010;PUENTE ABREGO - AUT [16047010];Limnigráfica;Automática con Telemetría - Convencional;1430;8.0433333330;-73.08305556;Norte De Santander;Ábrego;Caribe;Catatumbo;Río Tarra
16047020;PUENTE TARRA [16047020];Limnimétrica;Convencional;140;8.5886111110;-73.08111111;Norte De Santander;El Tarra;Caribe;Catatumbo;Río Tarra
16047030;CINCHO EL [16047030];Limnigráfica;Convencional;190;8.2333333330;-73.05;Norte De Santander;Ábrego;Caribe;Catatumbo;Río Tarra
16047040;CANAL 01-15 R4 KO [16047040];Limnimétrica;Convencional;1411;8.05;-73.21666667;Norte De Santander;Ábrego;Caribe;Catatumbo;Río Algodonal (Alto Catatumbo)
16047050;CANAL 02-07 KO [16047050];Limnimétrica;Convencional;1200;8.0666666670;-73.20;Norte De Santander;Ábrego;Caribe;Catatumbo;Río Algodonal (Alto Catatumbo)
